Label;boot;user;type;zulu is gps;zulu hour;zulu min;zulu sec;date valid;zulu day;zulu mo;zulu year;nav port;sel course;cdi;vor from;vor to;gsi;brg 1 port;brg 2 port;brg 1;brg 2;dtw/dme;type.1;oil pres;man pres;oil temp;fuel pres;volts;amps;rpm;fuel flow;type.2;gals rem;fuel lvl 1;fuel lvl 2;ems gp 1;ems gp 2;ems gp 3;gp t-couple;contact 1;contact 2;contact 3;contact 4;contact 5;contact 6;type.3;egt 1;egt 2;egt 3;egt 4;egt 5;egt 6;cht 1;cht 2;cht 3;cht 4;type.4;cht 5;cht 6;hobbs;tach;hs34 gp 1;hs34 gp 2;hs34 gp 3;type.5;pitch;roll;heading;turn rate;airspeed;altitude;vert spd;gz;aoa %;oat;type.6
2228;1;0;0;0;12;32;24;0;0;0;0;0;0;0;0;0;0;0;5;0;0;0;2;29;13,0625;73;4,25;12,6875;-6,25;1219;7,25;3;24,0625;0;0;-45,625;903,375;-1178,875;2029;1;1;0;0;0;0;4;570;554;674;564;2029;2029;77;80;78;77;5;1406;1409;8,3125;4,5;0;0;0;6;-0,375;-1;49,875;0;0;349;156;1;100;-46;7
2235;0;0;0;0;12;32;29;0;0;0;0;0;0;0;0;0;0;0;5;0;0;0;2;63;13;74;5,625;13,6875;13,8125;1186;6,375;3;24;0;0;-45,5625;902,8125;-1160,9375;2029;1;1;0;0;0;0;4;712;705;817;715;2029;2029;83;85;84;82;5;1406;1409;8,3125;4,5;0;0;0;6;-0,375;-0,875;48,625;0;0;358;80;1;100;-46;7
2242;0;0;0;0;12;32;30;0;0;0;0;0;0;0;0;0;0;0;5;0;0;0;2;64;12,8125;73;5,625;13,9375;28,0625;1176;6,3125;3;24;0;0;-45,625;903,625;-1134,3125;2029;1;1;0;0;0;0;4;732;728;837;738;2029;2029;84;86;86;84;5;1406;1409;8,3125;4,5;0;0;0;6;-0,375;-1;48,5;0;0;359;53;1;100;-46;7
2248;0;0;0;0;12;32;35;0;0;0;0;0;0;0;0;0;0;0;5;0;0;0;2;65;12,4375;73;5,625;14;35,3125;1081;5,9375;3;24;0;0;-45,8125;903,75;-1104,75;2029;1;1;0;0;0;0;4;788;793;891;805;2029;2029;92;93;93;89;5;1406;1409;8,3125;4,5;0;0;0;6;-0,375;-1;48,375;0;0;359;-11;1;100;-46;7
2254;0;0;0;0;12;32;40;0;0;0;0;0;0;0;0;0;0;0;5;0;0;0;2;64;12,25;73;5,625;14,0625;34;1098;5,6875;3;24;0;0;-45,6875;903,875;-1080,25;2029;1;1;0;0;0;0;4;822;830;924;846;2029;2029;98;99;98;96;5;1406;1409;8,3125;4,5;0;0;0;6;-0,5;-1;48,5;0;0;359;-44;0,9375;100;-46;7
2260;0;0;0;0;12;32;45;0;0;0;0;0;0;0;0;0;0;0;5;0;0;0;2;64;12,5;74;5,625;13,9375;32,5;1097;5,5625;3;24;0;0;-45,8125;903,625;-1076,75;2029;1;1;0;0;0;0;4;852;860;955;885;2029;2029;105;106;105;103;5;1406;1408;8,3125;4,5;0;0;0;6;-0,625;-1;48,5;0;0;359;-53;1;100;-46;7
2266;0;0;0;0;12;32;50;0;0;0;0;0;0;0;0;0;0;0;5;0;0;0;2;63;12;75;5,625;14;33,3125;1107;5,5625;3;24;0;0;-45,5;901,625;-1066,375;2029;1;1;0;0;0;0;4;875;882;977;915;2029;2029;111;112;111;109;5;1406;1408;8,3125;4,5;0;0;0;6;-0,625;-0,75;48,5;0;0;359;-26;0,9375;100;-46;7
2272;0;0;0;0;12;32;55;0;0;0;0;0;0;0;0;0;0;0;5;0;0;0;2;63;11,75;75;5,625;14;32,375;1117;5,5;3;24;0;0;-45,625;902,5625;-1047,5;2029;1;1;0;0;0;0;4;896;903;1000;942;2029;2029;118;118;118;116;5;1406;1408;8,3125;4,5;0;0;0;6;-0,75;-0,75;48,5;0;0;359;-56;1;100;-46;7
2278;0;0;0;0;12;33;0;0;0;0;0;0;0;0;0;0;0;0;5;0;0;0;2;63;11,875;75;5,625;13,9375;31,1875;1125;5,3125;3;24;0;0;-45,625;902,25;-1034,25;2029;1;1;0;0;0;0;4;916;922;1022;966;2029;2029;124;125;124;122;5;1406;1408;8,3125;4,5;0;0;0;6;-0,875;-0,75;48,5;0;0;385;-48;1;100;-46;7
2284;0;0;0;0;12;33;5;0;0;0;0;0;0;0;0;0;0;0;5;0;0;0;2;63;11,625;75;5,625;13,9375;30;1122;5,1875;3;24;0;0;-46,125;905,6875;-1014,4375;2029;1;1;0;0;0;0;4;934;939;1043;992;2029;2029;131;132;130;128;5;1406;1408;8,3125;4,5;0;0;0;6;-0,75;-0,625;48,5;0,125;0;383;-26;1;100;-46;7
2290;0;0;0;0;12;33;10;0;0;0;0;0;0;0;0;0;0;0;5;0;0;0;2;63;12,125;75;5,625;14;29,5;1120;5,375;3;23,9375;0;0;-45,625;902,25;-1003,75;2029;1;1;0;0;0;0;4;952;958;1062;1015;2029;2029;138;138;137;135;5;1406;1408;8,3125;4,5;0;0;0;6;-0,75;-0,625;48,25;0;0;381;-15;1;100;-46;7
2296;0;0;0;0;12;33;15;0;0;0;0;0;0;0;0;0;0;0;5;0;0;0;2;63;11,875;76;5,625;14;30,75;1128;5,4375;3;23,9375;0;0;-45,5;902,875;-1000,4375;2029;1;1;0;0;0;0;4;968;973;1074;1034;2029;2029;144;145;144;142;5;1406;1408;8,3125;4,5;0;0;0;6;-0,875;-0,5;48,25;0;0;379;-22;1;100;-46;7
2302;0;0;0;0;12;33;20;0;0;0;0;0;0;0;0;0;0;0;5;0;0;0;2;63;12,125;76;5,625;14;29,5625;1123;5,4375;3;23,9375;0;0;-45,8125;904,6875;-996,1875;2029;1;1;0;0;0;0;4;982;989;1088;1051;2029;2029;151;151;150;148;5;1406;1408;8,3125;4,5;0;0;0;6;-1;-0,5;48,25;0;0;377;-32;1;100;-46;7
2308;0;0;0;0;12;33;25;0;0;0;0;0;0;0;0;0;0;0;5;0;0;0;2;63;11,9375;75;5,625;14;29,375;1138;5,5625;3;23,9375;0;0;-45,75;903,375;-970,125;2029;1;1;0;0;0;0;4;995;1000;1100;1065;2029;2029;157;158;156;155;5;1406;1408;8,3125;4,5;0;0;0;6;-1;-0,625;48,375;0;0;376;-16;1;100;-46;7
2315;0;0;0;0;12;33;30;0;0;0;0;0;0;0;0;0;0;0;5;0;0;0;2;63;12;75;5,625;14;27,3125;1054;5,3125;3;23,9375;0;0;-45,5625;901,8125;-961,3125;2029;1;1;0;0;0;0;4;999;1003;1099;1070;2029;2029;164;164;164;162;5;1406;1408;8,3125;4,5;0;0;0;6;-1;-0,375;48,25;-0,125;0;374;-11;1;100;-46;7
2321;0;0;0;0;12;33;35;0;0;0;0;0;0;0;0;0;0;0;5;0;0;0;2;62;11,1875;76;5,625;14;28,3125;1054;5,25;3;23,9375;0;0;-45,625;902,5625;-952,25;2029;1;1;0;0;0;0;4;986;988;1078;1049;2029;2029;171;170;170;169;5;1406;1408;8,3125;4,5;0;0;0;6;-0,875;-0,375;48,125;-0,125;0;373;-19;1;100;-46;7
2327;0;0;0;0;12;33;40;0;0;0;0;0;0;0;0;0;0;0;5;0;0;0;2;62;11,4375;76;5,625;14;22,4375;1029;5,25;3;23,9375;0;0;-45,5;902,375;-937,6875;2029;1;1;0;0;0;0;4;976;976;1061;1035;2029;2029;177;176;176;176;5;1406;1408;8,3125;4,5;0;0;0;6;-0,875;-0,25;48,375;0;0;372;-17;1;100;-45;7
2333;0;0;0;0;12;33;45;0;0;0;0;0;0;0;0;0;0;0;5;0;0;0;2;62;11,5625;76;5,625;14;20,5;1027;5,25;3;23,9375;0;0;-45,75;904,25;-931,75;2029;1;1;0;0;0;0;4;967;967;1049;1024;2029;2029;183;181;182;182;5;1406;1408;8,3125;4,5;0;0;0;6;-0,875;-0,375;48,125;0;0;371;-20;1;100;-46;7
2339;0;0;0;0;12;33;50;0;0;0;0;0;0;0;0;0;0;0;5;0;0;0;2;62;12,0625;77;5,625;14,0625;28,125;1028;5,3125;3;23,875;0;0;-45,625;902,25;-920,6875;2029;1;1;0;0;0;0;4;959;959;1038;1018;2029;2029;189;187;188;189;5;1406;1408;8,3125;4,5;0;0;0;6;-0,875;-0,375;48;-0,125;0;371;-18;1;100;-46;7
2345;0;0;0;0;12;33;55;0;0;0;0;0;0;0;0;0;0;0;5;0;0;0;2;61;11,75;76;5,625;14;27;1023;5,4375;3;23,875;0;0;-45,6875;902,6875;-930,1875;2029;1;1;0;0;0;0;4;955;954;1031;1013;2029;2029;194;192;195;195;5;1406;1408;8,3125;4,5;0;0;0;6;-1,125;-0,625;48,125;-0,125;0;370;-7;1;100;-46;7
2351;0;0;0;0;12;34;0;0;0;0;0;0;0;0;0;0;0;0;5;0;0;0;2;61;11,25;76;5,625;14;25,5;1020;4,9375;3;23,875;0;0;-45,6875;903,9375;-906,6875;2029;1;1;0;0;0;0;4;952;950;1024;1008;2030;2029;200;198;201;202;5;1406;1408;8,3125;4,5;0;0;0;6;-1;-0,75;48,125;-0,125;0;370;5;1;100;-46;7
2357;0;0;0;0;12;34;5;0;0;0;0;0;0;0;0;0;0;0;5;0;0;0;2;61;11,6875;76;5,625;14,0625;23,25;1025;5,0625;3;23,875;0;0;-45,5;902,5625;-907,0625;2030;1;1;0;0;0;0;4;952;950;1023;1007;2030;2029;205;203;206;208;5;1406;1408;8,3125;4,5;0;0;0;6;-1;-0,625;48,375;0;0;369;11;1;100;-46;7
2363;0;0;0;0;12;34;10;0;0;0;0;0;0;0;0;0;0;0;5;0;0;0;2;60;12,0625;77;5,625;14;22,0625;1023;5,125;3;23,875;0;0;-45,75;904,125;-900;2030;1;1;0;0;0;0;4;954;950;1023;1008;2030;2029;210;207;211;214;5;1406;1408;8,3125;4,5;0;0;0;6;-1,125;-0,625;48,375;-0,125;0;369;-20;1;100;-46;7
2369;0;0;0;0;12;34;15;0;0;0;0;0;0;0;0;0;0;0;5;0;0;0;2;60;11,4375;77;5,625;14;22,75;1027;5,125;3;23,875;0;0;-45,4375;902,1875;-897,5625;2030;1;1;0;0;0;0;4;955;950;1024;1008;2030;2029;215;212;217;221;5;1406;1408;8,3125;4,5;0;0;0;6;-1,25;-0,625;48,375;-0,125;0;369;-2;1;100;-45;7
2375;0;0;0;0;12;34;20;0;0;0;0;0;0;0;0;0;0;0;5;0;0;0;2;60;11,375;77;5,625;14,0625;22,25;1038;5,0625;3;23,875;0;0;-45,5625;903,25;-907,4375;2030;1;1;0;0;0;0;4;957;950;1024;1011;2030;2029;220;217;222;226;5;1406;1408;8,3125;4,5;0;0;0;6;-1;-0,5;48,25;-0,125;0;369;17;1;100;-46;7
2381;0;0;0;0;12;34;25;0;0;0;0;0;0;0;0;0;0;0;5;0;0;0;2;60;11,25;77;5,625;14,0625;21,1875;1024;5,125;3;23,875;0;0;-45,8125;905,0625;-896,5625;2031;1;1;0;0;0;0;4;958;951;1025;1013;2031;2030;225;222;228;231;5;1406;1408;8,3125;4,5;0;0;0;6;-0,875;-0,625;48,25;-0,125;0;369;-11;1;100;-46;7
2387;0;0;0;0;12;34;30;0;0;0;0;0;0;0;0;0;0;0;5;0;0;0;2;60;11,25;77;5,625;14,0625;20,3125;1027;5,125;3;23,875;0;0;-45,75;903,375;-891,1875;2031;1;1;0;0;0;0;4;959;951;1026;1014;2031;2030;230;227;233;237;5;1406;1408;8,3125;4,5;0;0;0;6;-1;-0,5;48,25;-0,125;0;369;12;1;100;-46;7
2393;0;0;0;0;12;34;35;0;0;0;0;0;0;0;0;0;0;0;5;0;0;0;2;60;12,25;77;5,625;14,0625;18,0625;1025;4,875;3;23,8125;0;0;-45,5;903,4375;-881,625;2031;1;1;0;0;0;0;4;961;953;1026;1015;2031;2030;234;231;238;242;5;1406;1408;8,3125;4,5;0;0;0;6;-1;-0,75;48,5;-0,125;0;369;-7;1;100;-45;7
2399;0;0;0;0;12;34;40;0;0;0;0;0;0;0;0;0;0;0;5;0;0;0;2;60;12,125;78;5,625;14,125;17,8125;1029;5;3;23,8125;0;0;-45,5625;901,8125;-880,6875;2031;1;1;0;0;0;0;4;962;953;1027;1017;2031;2030;239;235;243;248;5;1406;1408;8,3125;4,5;0;0;0;6;-1;-0,75;48,125;-0,125;0;369;23;1;100;-46;7
2406;0;0;0;0;12;34;41;0;0;0;0;0;0;0;0;0;0;0;5;0;0;0;2;60;12;78;5,625;14,0625;14,875;1028;5;3;23,8125;0;0;-45,5625;902,0625;-882,9375;2031;1;1;0;0;0;0;4;963;954;1028;1017;2032;2030;239;236;244;248;5;1406;1408;8,3125;4,5;0;0;0;6;-1;-0,625;48,25;-0,125;0;369;-13;1;100;-46;7
2413;0;0;0;0;12;34;42;0;0;0;0;0;0;0;0;0;0;0;5;0;0;0;2;61;11,625;77;5,625;14,125;15,5;1031;4,875;3;23,8125;0;0;-45,875;904,125;-881,6875;2031;1;1;0;0;0;0;4;963;954;1028;1017;2032;2030;240;237;245;249;5;1406;1408;8,3125;4,5;0;0;0;6;-0,875;-0,625;48,375;-0,125;0;369;9;1;100;-46;7
2419;0;0;0;0;12;34;47;0;0;0;0;0;0;0;0;0;0;0;5;0;0;0;2;61;11,9375;77;5,625;14,125;16,1875;1032;4,9375;3;23,8125;0;0;-45,5625;902,9375;-879,25;2032;1;1;0;0;0;0;4;966;956;1031;1018;2032;2031;245;241;250;254;5;1407;1408;8,3125;4,5;0;0;0;6;-0,75;-0,5;48,5;-0,125;0;369;2;1;100;-46;7
2426;0;0;0;0;12;34;48;0;0;0;0;0;0;0;0;0;0;0;5;0;0;0;2;60;12,125;78;5,625;14,0625;15,5625;1030;5;3;23,8125;0;0;-45,4375;902;-876,875;2032;1;1;0;0;0;0;4;967;956;1031;1018;2032;2031;246;242;251;256;5;1407;1408;8,3125;4,5;0;0;0;6;-0,875;-0,625;48,25;-0,125;0;369;10;1;100;-45;7
2432;0;0;0;0;12;34;53;0;0;0;0;0;0;0;0;0;0;0;5;0;0;0;2;60;11,75;78;5,625;14,125;12;1031;5,625;3;23,8125;0;0;-45,8125;903,6875;-886,125;2032;1;1;0;0;0;0;4;969;957;1032;1020;2032;2031;250;246;256;260;5;1407;1408;8,3125;4,5;0;0;0;6;-0,875;-0,5;48,375;-0,125;0;369;2;1;100;-46;7
2438;0;0;0;0;12;34;58;0;0;0;0;0;0;0;0;0;0;0;5;0;0;0;2;60;11,8125;78;5,625;14,125;13,0625;1032;5,375;3;23,8125;0;0;-45,625;902,5;-871,6875;2032;1;1;0;0;0;0;4;966;954;1024;1015;2032;2031;254;250;261;265;5;1407;1408;8,3125;4,5;0;0;0;6;-0,875;-0,625;48,375;-0,125;0;369;3;1;100;-46;7
2444;0;0;0;0;12;35;3;0;0;0;0;0;0;0;0;0;0;0;5;0;0;0;2;60;12,0625;79;5,625;14,125;13,625;1044;5,25;3;23,8125;0;0;-45,5;902,25;-867;2033;1;1;0;0;0;0;4;961;949;1019;1011;2033;2032;258;253;265;270;5;1407;1408;8,3125;4,5;0;0;0;6;-1;-0,5;48,5;-0,125;0;369;-6;1;100;-45;7
2450;0;0;0;0;12;35;8;0;0;0;0;0;0;0;0;0;0;0;5;0;0;0;2;60;11,3125;79;5,625;14,125;13,8125;1037;4,5;3;23,8125;0;0;-45,6875;902,8125;-864,1875;2033;1;1;0;0;0;0;4;961;949;1021;1014;2033;2032;261;257;270;274;5;1407;1408;8,3125;4,625;0;0;0;6;-0,875;-0,375;48,375;-0,25;0;369;2;1;100;-46;7
2456;0;0;0;0;12;35;13;0;0;0;0;0;0;0;0;0;0;0;5;0;0;0;2;60;12;80;5,625;14,125;10,6875;1037;5,25;3;23,8125;0;0;-45,75;904,0625;-857,3125;2033;1;1;0;0;0;0;4;967;956;1026;1019;2033;2032;266;260;274;279;5;1407;1408;8,3125;4,625;0;0;0;6;-1;-0,375;48,625;-0,125;0;369;23;1;100;-46;7
2462;0;0;0;0;12;35;18;0;0;0;0;0;0;0;0;0;0;0;5;0;0;0;2;60;11,5;80;5,625;14,125;10,625;1031;4,9375;3;23,8125;0;0;-45,5;903,75;-856,3125;2033;1;1;0;0;0;0;4;967;957;1026;1019;2034;2032;269;264;278;283;5;1407;1408;8,375;4,625;0;0;0;6;-1;-0,5;48,5;-0,125;0;369;-21;1;100;-46;7
2468;0;0;0;0;12;35;23;0;0;0;0;0;0;0;0;0;0;0;5;0;0;0;2;59;12,125;79;5,625;14,125;10,625;1026;4,5625;3;23,75;0;0;-45,625;902,5625;-858,25;2034;1;1;0;0;0;0;4;970;960;1028;1022;2034;2033;273;268;283;287;5;1407;1408;8,375;4,625;0;0;0;6;-1;-0,5;48,75;-0,125;0;369;34;1;100;-46;7
2474;0;0;0;0;12;35;28;0;0;0;0;0;0;0;0;0;0;0;5;0;0;0;2;59;11,625;79;5,625;14,125;9,5;1036;4,5625;3;23,75;0;0;-45,6875;903,0625;-868,1875;2034;1;1;0;0;0;0;4;975;965;1033;1025;2034;2033;277;271;287;291;5;1407;1408;8,375;4,625;0;0;0;6;-1;-0,5;48,25;-0,125;0;369;30;1;100;-46;7
2480;0;0;0;0;12;35;33;0;0;0;0;0;0;0;0;0;0;0;5;0;0;0;2;59;11,625;80;5,625;14,1875;9,375;1035;4,5;3;23,75;0;0;-45,625;903,4375;-871,875;2034;1;1;0;0;0;0;4;979;969;1036;1027;2034;2033;280;275;291;295;5;1407;1408;8,375;4,625;0;0;0;6;-1;-0,625;48,5;-0,125;0;369;-26;1;100;-46;7
2486;0;0;0;0;12;35;38;0;0;0;0;0;0;0;0;0;0;0;5;0;0;0;2;59;12,3125;80;5,625;14,1875;8,9375;1033;4,3125;3;23,75;0;0;-45,4375;901,875;-858,6875;2034;1;1;0;0;0;0;4;981;970;1038;1028;2034;2033;284;278;295;299;5;1407;1408;8,375;4,625;0;0;0;6;-1;-0,625;48,625;-0,125;0;369;-17;1;100;-45;7
2492;0;0;0;0;12;35;43;0;0;0;0;0;0;0;0;0;0;0;5;0;0;0;2;59;11,3125;80;5,625;14,1875;9,75;1043;4,25;3;23,75;0;0;-45,4375;903,1875;-875,75;2034;1;1;0;0;0;0;4;983;972;1042;1030;2035;2033;287;281;299;303;5;1407;1408;8,375;4,625;0;0;0;6;-1,125;-0,75;48,75;-0,125;0;369;1;1;100;-45;7
2498;0;0;0;0;12;35;48;0;0;0;0;0;0;0;0;0;0;0;5;0;0;0;2;59;11,75;81;5,625;14,1875;7;1041;4,8125;3;23,75;0;0;-45,6875;903,75;-862,4375;2035;1;1;0;0;0;0;4;983;975;1044;1032;2035;2034;291;285;303;307;5;1407;1408;8,375;4,625;0;0;0;6;-1,125;-0,625;48,375;-0,25;0;369;-5;1;100;-46;7
2504;0;0;0;0;12;35;53;0;0;0;0;0;0;0;0;0;0;0;5;0;0;0;2;59;12,25;81;5,625;14,1875;6,875;1032;5;3;23,75;0;0;-45,8125;904,9375;-867,0625;2035;1;1;0;0;0;0;4;983;976;1045;1032;2035;2034;295;288;307;311;5;1408;1408;8,375;4,625;0;0;0;6;-1,125;-0,5;48,5;-0,125;0;369;14;1;100;-46;7
2510;0;0;0;0;12;35;58;0;0;0;0;0;0;0;0;0;0;0;5;0;0;0;2;59;11,75;81;5,625;14,1875;5,5;1040;5,125;3;23,75;0;0;-45,9375;905,625;-862,9375;2035;1;1;0;0;0;0;4;984;978;1045;1033;2036;2034;299;291;311;314;5;1408;1408;8,375;4,625;0;0;0;6;-1;-0,625;48,75;-0,25;0;369;-24;1;100;-46;7
2516;0;0;0;0;12;36;3;0;0;0;0;0;0;0;0;0;0;0;5;0;0;0;2;59;11,5;82;5,625;14,1875;5;1040;5,4375;3;23,75;0;0;-46;907;-861,625;2036;1;1;0;0;0;0;4;985;979;1045;1033;2036;2035;302;294;315;318;5;1408;1408;8,375;4,625;0;0;0;6;-1;-0,625;48,75;-0,125;0;369;-26;1;100;-46;7
2522;0;0;0;0;12;36;8;0;0;0;0;0;0;0;0;0;0;0;5;0;0;0;2;59;12;82;5,625;14,1875;8,3125;1035;5,6875;3;23,6875;0;0;-45,375;901,6875;-866,125;2036;1;1;0;0;0;0;4;987;982;1048;1034;2036;2035;305;297;319;322;5;1408;1408;8,375;4,625;0;0;0;6;-1,25;-0,625;48,75;-0,125;0;369;-14;1;100;-45;7
2528;0;0;0;0;12;36;13;0;0;0;0;0;0;0;0;0;0;0;5;0;0;0;2;59;11,6875;82;5,625;14,25;7,8125;1040;5,6875;3;23,6875;0;0;-45,5;902,3125;-874,25;2036;1;1;0;0;0;0;4;989;984;1050;1035;2034;2035;308;300;323;325;5;1408;1408;8,375;4,625;0;0;0;6;-1,125;-0,5;48,5;-0,125;0;369;-12;1;100;-45;7
2534;0;0;0;0;12;36;18;0;0;0;0;0;0;0;0;0;0;0;5;0;0;0;2;59;12,0625;83;5,625;14,25;6,75;1028;6;3;23,6875;0;0;-45,5625;903,0625;-872,125;2036;1;1;0;0;0;0;4;992;984;1051;1035;2000;2035;311;304;327;328;5;1406;1408;8,375;4,625;0;0;0;6;-1,125;-0,625;48,375;-0,125;0;369;15;1;100;-46;7
2540;0;0;0;0;12;36;23;0;0;0;0;0;0;0;0;0;0;0;5;0;0;0;2;59;11,6875;83;5,625;14,3125;7,625;1038;5,9375;3;23,6875;0;0;-45,875;906,375;-858,375;2036;1;1;0;0;0;0;4;994;986;1052;1035;1966;2035;314;306;330;332;5;1396;1408;8,375;4,625;0;0;0;6;-1;-0,5;48,5;-0,125;0;369;-6;1;100;-46;7
2546;0;0;0;0;12;36;28;0;0;0;0;0;0;0;0;0;0;0;5;0;0;0;2;59;12;83;5,625;14,3125;7,625;1037;5,9375;3;23,6875;0;0;-45,5625;901,875;-874,5625;2012;1;1;0;0;0;0;4;997;987;1054;1035;1933;2035;316;310;334;335;5;1385;1408;8,375;4,625;0;0;0;6;-1;-0,5;48,625;-0,125;0;369;4;1;100;-46;7
2552;0;0;0;0;12;36;33;0;0;0;0;0;0;0;0;0;0;0;5;0;0;0;2;59;11,6875;84;5,625;14,375;6,875;1042;5,9375;3;23,6875;0;0;-45,375;901,8125;-863,625;1977;1;1;0;0;0;0;4;999;990;1056;1035;1902;2036;319;312;337;339;5;1374;1408;8,375;4,625;0;0;0;6;-0,875;-0,625;48,625;-0,125;0;369;18;1;100;-45;7
2558;0;0;0;0;12;36;38;0;0;0;0;0;0;0;0;0;0;0;5;0;0;0;2;59;11,75;85;5,625;14,25;5,0625;1040;6,0625;3;23,6875;0;0;-45,875;904,25;-867;1944;1;1;0;0;0;0;4;1001;991;1058;1035;1871;2036;322;315;341;342;5;1362;1408;8,375;4,625;0;0;0;6;-0,875;-0,625;48,625;-0,125;0;369;-5;1;100;-46;7
2564;0;0;0;0;12;36;43;0;0;0;0;0;0;0;0;0;0;0;5;0;0;0;2;58;12,5625;85;5,625;14,5625;10,125;1035;5,9375;3;23,6875;0;0;-45,5625;903,0625;-873,875;1913;1;1;0;0;0;0;4;1005;992;1058;1036;1840;2036;324;318;344;345;5;1350;1408;8,375;4,625;0;0;0;6;-1;-0,5;48,875;-0,125;0;369;1;1;100;-46;7
2571;0;0;0;0;12;36;48;0;0;0;0;0;0;0;0;0;0;0;5;0;0;0;2;59;11,9375;85;5,625;14,375;1,875;1041;5,875;3;23,625;0;0;-45,5;903,625;-866,875;1879;1;1;0;0;0;0;4;1007;995;1063;1037;1811;2036;327;320;347;348;5;1337;1408;8,375;4,625;0;0;0;6;-1,125;-0,5;48,625;-0,125;0;369;0;1;100;-45;7
2577;0;0;0;0;12;36;53;0;0;0;0;0;0;0;0;0;0;0;5;0;0;0;2;59;11,75;86;5,625;14,375;5,625;1052;5,875;3;23,625;0;0;-45,4375;902,0625;-867,0625;1848;1;1;0;0;0;0;4;1009;996;1064;1039;1782;2037;329;323;350;351;5;1324;1408;8,375;4,625;0;0;0;6;-1,125;-0,75;48,625;-0,25;0;369;-6;1;100;-45;7
2583;0;0;0;0;12;36;58;0;0;0;0;0;0;0;0;0;0;0;5;0;0;0;2;59;12,375;85;5,625;14,375;3,9375;1053;5,8125;3;23,625;0;0;-45,5;901,625;-868,625;1818;1;1;0;0;0;0;4;1010;997;1065;1039;1754;2037;332;325;354;354;5;1311;1408;8,375;4,625;0;0;0;6;-1,25;-0,625;48,75;-0,125;0;369;-1;1;100;-46;7
2589;0;0;0;0;12;37;3;0;0;0;0;0;0;0;0;0;0;0;5;0;0;0;2;58;12,5;86;5,625;14,3125;3,0625;1040;6;3;23,625;0;0;-45,75;904;-872,0625;1788;1;1;0;0;0;0;4;1011;998;1067;1039;1727;2037;334;328;356;357;5;1297;1408;8,375;4,625;0;0;0;6;-1,125;-0,625;48,875;-0,125;0;369;16;1;100;-46;7
2595;0;0;0;0;12;37;8;0;0;0;0;0;0;0;0;0;0;0;5;0;0;0;2;57;12,125;86;5,625;14,3125;4,375;1043;6;3;23,625;0;0;-45,6875;903,75;-875,875;1759;1;1;0;0;0;0;4;1013;1001;1069;1041;1700;2037;336;330;359;359;5;1283;1408;8,375;4,625;0;0;0;6;-1,25;-0,625;48,75;-0,125;0;369;-17;1;100;-46;7
2601;0;0;0;0;12;37;13;0;0;0;0;0;0;0;0;0;0;0;5;0;0;0;2;57;12,125;87;5,625;14,3125;4,25;1044;6,25;3;23,625;0;0;-45,875;904,125;-873,125;1731;1;1;0;0;0;0;4;1016;1002;1072;1042;1673;2037;338;333;362;362;5;1269;1408;8,375;4,625;0;0;0;6;-1,125;-0,75;48,625;-0,25;0;369;49;1;100;-46;7
2607;0;0;0;0;12;37;18;0;0;0;0;0;0;0;0;0;0;0;5;0;0;0;2;57;11,9375;87;5,625;14,25;4,6875;1041;6,3125;3;23,625;0;0;-45,875;903,9375;-885,5;1704;1;1;0;0;0;0;4;1018;1005;1074;1043;1648;2038;340;335;365;365;5;1255;1408;8,375;4,625;0;0;0;6;-1,125;-0,625;48,5;-0,125;0;369;-11;1;100;-46;7
2613;0;0;0;0;12;37;23;0;0;0;0;0;0;0;0;0;0;0;5;0;0;0;2;57;12,0625;88;5,625;14,25;5,375;1038;5,5;3;23,5625;0;0;-45,6875;904,75;-871,125;1677;1;1;0;0;0;0;4;1019;1007;1074;1043;1623;2038;343;337;367;367;5;1241;1408;8,375;4,625;0;0;0;6;-1;-0,75;48,625;-0,125;0;369;1;1;100;-46;7
2619;0;0;0;0;12;37;28;0;0;0;0;0;0;0;0;0;0;0;5;0;0;0;2;57;11,75;88;5,625;14,3125;4,5;1045;5,75;3;23,5625;0;0;-45,75;904,375;-882,75;1652;1;1;0;0;0;0;4;1022;1009;1074;1043;1599;2038;345;340;370;370;5;1227;1408;8,375;4,625;0;0;0;6;-1;-0,875;48,875;-0,125;0;369;10;1;100;-46;7
2625;0;0;0;0;12;37;33;0;0;0;0;0;0;0;0;0;0;0;5;0;0;0;2;57;12,375;88;5,625;14,4375;6,125;1039;6,125;3;23,5625;0;0;-45,625;903,5625;-876;1627;1;1;0;0;0;0;4;1023;1011;1073;1045;1575;2038;347;342;372;373;5;1212;1408;8,375;4,625;0;0;0;6;-1,125;-0,875;46,625;-0,125;0;369;10;1;100;-46;7
2631;0;0;0;0;12;37;38;0;0;0;0;0;0;0;0;0;0;0;5;0;0;0;2;57;12,625;89;5,625;14,4375;6,9375;1033;6,0625;3;23,5625;0;0;-45,75;904;-884,25;1604;1;1;0;0;0;0;4;1024;1015;1074;1047;1552;2033;349;344;375;375;5;1198;1408;8,375;4,625;0;0;0;6;-1,125;-0,75;44,875;-0,125;0;369;15;1;100;-46;7
2637;0;0;0;0;12;37;43;0;0;0;0;0;0;0;0;0;0;0;5;0;0;0;2;57;12,3125;90;5,625;14,375;6;1041;6,0625;3;23,5625;0;0;-45,375;902,6875;-885,8125;1578;1;1;0;0;0;0;4;1024;1017;1077;1047;1529;2005;351;346;378;377;5;1183;1408;8,375;4,625;0;0;0;6;-1,125;-0,75;48,5;-0,125;0;369;-32;1;100;-45;7
2643;0;0;0;0;12;37;48;0;0;0;0;0;0;0;0;0;0;0;5;0;0;0;2;59;11,875;90;5,625;14,25;1,5;1152;6,6875;3;23,5625;0;0;-45,8125;904,75;-891,625;1553;1;1;0;0;0;0;4;1045;1042;1103;1068;1506;1977;353;349;380;380;5;1169;1408;8,375;4,625;0;0;0;6;0,375;-0,5;65,875;4,875;0;369;-14;1;100;-46;7
2649;0;0;0;0;12;37;53;0;0;0;0;0;0;0;0;0;0;0;5;0;0;0;2;59;12,75;90;5,625;14,25;3,4375;1137;5,875;3;23,5625;0;0;-45,4375;901,9375;-898,9375;1530;1;1;0;0;0;0;4;1066;1063;1125;1087;1485;1948;355;351;383;383;5;1154;1408;8,375;4,625;0;0;0;6;0,375;-0,25;81,75;1,625;0;369;-6;1;100;-45;7
2655;0;0;0;0;12;37;58;0;0;0;0;0;0;0;0;0;0;0;5;0;0;0;2;59;12,25;92;5,625;14,3125;5,0625;1133;5,8125;3;23,5625;0;0;-45,625;903,25;-903,0625;1507;1;1;0;0;0;0;4;1073;1070;1134;1096;1463;1921;357;354;386;385;5;1140;1408;8,375;4,625;0;0;0;6;0,5;0,625;91,875;-1,25;19,25;369;6;1;100;-46;7
2661;0;0;0;0;12;38;3;0;0;0;0;0;0;0;0;0;0;0;5;0;0;0;2;58;12,0625;92;5,625;14,375;4,5625;1059;5,8125;3;23,5;0;0;-45,625;902,5625;-905,875;1485;1;1;0;0;0;0;4;1077;1075;1137;1100;1442;1895;360;357;388;387;5;1126;1408;8,375;4,625;0;0;0;6;1,625;-0,125;88,25;0,625;19,5;369;3;1;100;-46;7
2667;0;0;0;0;12;38;8;0;0;0;0;0;0;0;0;0;0;0;5;0;0;0;2;58;12,1875;92;5,625;14,4375;3,625;1056;6;3;23,5;0;0;-46,0625;906,625;-894,875;1463;1;1;0;0;0;0;4;1063;1060;1122;1088;1422;1869;361;358;391;390;5;1111;1408;8,375;4,625;0;0;0;6;0,25;0,375;93,125;0,5;20;369;-17;1;100;-46;7
2673;0;0;0;0;12;38;13;0;0;0;0;0;0;0;0;0;0;0;5;0;0;0;2;56;11,4375;93;5,625;14,5;7,9375;994;5,9375;3;23,5;0;0;-45,4375;901,875;-913,625;1442;1;1;0;0;0;0;4;1048;1046;1104;1074;1402;1843;363;360;393;392;5;1097;1408;8,375;4,625;0;0;0;6;0,25;-0,125;86,375;-1,875;19,75;369;3;1;100;-45;7
2679;0;0;0;0;12;38;18;0;0;0;0;0;0;0;0;0;0;0;5;0;0;0;2;56;11,8125;94;5,625;14,5;5,375;984;5,8125;3;23,5;0;0;-45,3125;901,25;-927,4375;1421;1;1;0;0;0;0;4;1040;1040;1095;1066;1382;1818;365;361;395;393;5;1083;1408;8,375;4,625;0;0;0;6;-0,625;-1,5;56,625;-5,625;19,25;369;24;1;100;-45;7
2685;0;0;0;0;12;38;23;0;0;0;0;0;0;0;0;0;0;0;5;0;0;0;2;55;11,0625;94;5,625;14,3125;1,25;991;5,5625;3;23,5;0;0;-45,8125;903,625;-937;1401;1;1;0;0;0;0;4;1034;1036;1087;1060;1363;1794;366;363;397;394;5;1070;1408;8,375;4,625;0;0;0;6;-1;-1,375;56,125;2,5;20,25;369;-30;1;100;-46;7
2691;0;0;0;0;12;38;28;0;0;0;0;0;0;0;0;0;0;0;5;0;0;0;2;56;11,25;94;5,625;14,3125;2,9375;991;5,3125;3;23,5;0;0;-45,6875;903,8125;-935,625;1382;1;1;0;0;0;0;4;1031;1032;1080;1056;1344;1770;368;364;398;396;5;1056;1408;8,375;4,625;0;0;0;6;-0,5;-0,5;91,875;7,5;19,75;369;-2;1;100;-46;7
2697;0;0;0;0;12;38;33;0;0;0;0;0;0;0;0;0;0;0;5;0;0;0;2;56;11,3125;95;5,625;14,3125;3,8125;994;5,0625;3;23,5;0;0;-45,9375;904,4375;-941,375;1363;1;1;0;0;0;0;4;1030;1031;1078;1055;1326;1746;369;365;400;397;5;1043;1408;8,375;4,625;0;0;0;6;-0,375;1,75;132,75;7,25;18,75;369;11;1;100;-46;7
2703;0;0;0;0;12;38;38;0;0;0;0;0;0;0;0;0;0;0;5;0;0;0;2;60;14,4375;96;5,625;14,375;6,375;1263;6,875;3;23,4375;0;0;-45,375;901,5625;-923,5625;1344;1;1;0;0;0;0;4;1062;1069;1116;1085;1308;1723;371;367;402;398;5;1029;1408;8,375;4,625;0;0;0;6;-0,125;1,375;141;0,375;19,5;369;-25;1;100;-45;7
2709;0;0;0;0;12;38;43;0;0;0;0;0;0;0;0;0;0;0;5;0;0;0;2;59;13,125;96;5,625;14,375;3,8125;1161;6,75;3;23,4375;0;0;-45,875;905,3125;-898,5625;1325;1;1;0;0;0;0;4;1079;1088;1136;1105;1290;1700;374;371;405;401;5;1016;1408;8,375;4,625;0;0;0;6;0,875;1,5;142;-0,625;19,5;369;16;1;100;-46;7
2715;0;0;0;0;12;38;48;0;0;0;0;0;0;0;0;0;0;0;5;0;0;0;2;56;11,625;97;5,625;14,4375;6,9375;1003;6;3;23,4375;0;0;-45,6875;903,8125;-924,625;1309;1;1;0;0;0;0;4;1067;1071;1118;1096;1272;1678;376;372;407;403;5;1002;1408;8,375;4,625;0;0;0;6;0,375;0,375;141,625;-0,375;20,25;369;14;1;100;-46;7
2721;0;0;0;0;12;38;53;0;0;0;0;0;0;0;0;0;0;0;5;0;0;0;2;56;12,125;97;5,625;14,3125;2,8125;1010;5,6875;3;23,4375;0;0;-45,375;901,6875;-927,125;1289;1;1;0;0;0;0;4;1052;1054;1107;1081;1255;1656;377;373;409;404;5;990;1408;8,375;4,625;0;0;0;6;0;0,25;142,5;0,25;20,5;369;11;1;100;-45;7
2727;0;0;0;0;12;38;58;0;0;0;0;0;0;0;0;0;0;0;5;0;0;0;2;56;10,8125;98;5,625;14,25;4,1875;1009;5,5625;3;23,4375;0;0;-45,75;905,625;-941,4375;1272;1;1;0;0;0;0;4;1043;1046;1096;1072;1238;1634;379;375;410;405;5;977;1408;8,375;4,625;0;0;0;6;0,25;0,625;142,5;-0,125;21,25;369;7;1;100;-46;7
2733;0;0;0;0;12;39;3;0;0;0;0;0;0;0;0;0;0;0;5;0;0;0;2;55;10,4375;99;5,625;14,3125;4,625;954;5,5;3;23,4375;0;0;-45,8125;905,6875;-951,125;1255;1;1;0;0;0;0;4;1030;1035;1081;1062;1222;1613;380;376;412;406;5;964;1408;8,4375;4,625;0;0;0;6;0;-0,125;142,375;-0,125;21,25;369;34;1;100;-46;7
2739;0;0;0;0;12;39;8;0;0;0;0;0;0;0;0;0;0;0;5;0;0;0;2;54;11,75;100;5,625;14,3125;6;944;5,375;3;23,4375;0;0;-45,8125;903,8125;-951,5;1238;1;1;0;0;0;0;4;1016;1019;1064;1050;1206;1592;381;376;413;407;5;952;1408;8,4375;4,625;0;0;0;6;-0,25;0,125;141,375;-0,25;21,5;369;3;1;100;-46;7
2745;0;0;0;0;12;39;13;0;0;0;0;0;0;0;0;0;0;0;5;0;0;0;2;54;11;100;5,625;14,3125;6,3125;944;5,3125;3;23,4375;0;0;-45,6875;903,75;-963,8125;1222;1;1;0;0;0;0;4;1007;1010;1053;1041;1190;1572;382;378;414;408;5;939;1408;8,4375;4,625;0;0;0;6;-0,375;1,5;143,125;0,25;21,5;370;14;1;100;-46;7
2751;0;0;0;0;12;39;18;0;0;0;0;0;0;0;0;0;0;0;5;0;0;0;2;54;10,5625;101;5,625;14,375;6,6875;950;5,3125;3;23,375;0;0;-45,5;901,9375;-957,5;1207;1;1;0;0;0;0;4;1001;1004;1045;1035;1175;1551;383;379;415;409;5;927;1408;8,4375;4,625;0;0;0;6;-0,375;0,625;142,125;-0,625;21,25;372;28;1;100;-45;7
2757;0;0;0;0;12;39;23;0;0;0;0;0;0;0;0;0;0;0;5;0;0;0;2;54;11,0625;103;5,625;14,375;5,5625;953;5,3125;3;23,375;0;0;-45,5;902,3125;-967,0625;1191;1;1;0;0;0;0;4;998;1000;1040;1031;1160;1532;384;380;416;409;5;915;1408;8,4375;4,625;0;0;0;6;0,125;0,375;141,25;-0,375;20,75;371;-5;1;100;-45;7
2763;0;0;0;0;12;39;28;0;0;0;0;0;0;0;0;0;0;0;5;0;0;0;2;53;11,1875;102;5,625;14,4375;6,5;880;4,875;3;23,375;0;0;-45,8125;904,5625;-969,4375;1176;1;1;0;0;0;0;4;982;984;1022;1017;1145;1513;385;381;417;410;5;904;1408;8,4375;4,625;0;0;0;6;-0,5;0,25;143;0,5;21;372;-5;1;100;-46;7
2769;0;0;0;0;12;39;33;0;0;0;0;0;0;0;0;0;0;0;5;0;0;0;2;53;10,8125;103;5,625;14,3125;3,5625;877;4,75;3;23,375;0;0;-45,75;904,125;-967,1875;1161;1;1;0;0;0;0;4;967;968;1004;1002;1130;1494;386;381;418;411;5;892;1408;8,4375;4,625;0;0;0;6;-0,5;0,125;142,625;-0,25;20,5;374;24;1;100;-46;7
2775;0;0;0;0;12;39;38;0;0;0;0;0;0;0;0;0;0;0;5;0;0;0;2;52;10,5625;104;5,625;14,25;-0,25;875;4,75;3;23,375;0;0;-45,5625;903,0625;-971,5625;1149;1;1;0;0;0;0;4;954;956;990;991;1116;1475;386;382;419;411;5;881;1408;8,4375;4,625;0;0;0;6;-0,75;0,125;143,125;0,125;21;375;6;1;100;-46;7
2781;0;0;0;0;12;39;43;0;0;0;0;0;0;0;0;0;0;0;5;0;0;0;2;54;11,625;104;5,625;14,25;4;994;5,125;3;23,375;0;0;-45,5;902,3125;-984,125;1133;1;1;0;0;0;0;4;959;963;998;992;1101;1456;387;382;420;411;5;869;1408;8,4375;4,625;0;0;0;6;0,125;0,375;142,75;-0,125;20,25;375;14;1;100;-45;7
2787;0;0;0;0;12;39;48;0;0;0;0;0;0;0;0;0;0;0;5;0;0;0;2;54;11,4375;105;5,625;14,25;0,3125;1008;5,3125;3;23,375;0;0;-45,625;903,25;-994,6875;1119;1;1;0;0;0;0;4;985;991;1022;1010;1088;1438;388;383;421;412;5;858;1408;8,4375;4,625;0;0;0;6;0,25;0,375;142,125;-0,25;20,25;376;18;1;100;-46;7
2793;0;0;0;0;12;39;53;0;0;0;0;0;0;0;0;0;0;0;5;0;0;0;2;53;11,1875;105;5,625;14,3125;0,9375;892;5,125;3;23,375;0;0;-45,5;902,3125;-975,625;1105;1;1;0;0;0;0;4;982;987;1018;1008;1074;1421;389;384;422;413;5;847;1408;8,4375;4,625;0;0;0;6;-0,75;-0,875;141,5;0,125;20,75;376;11;1;100;-45;7
2799;0;0;0;0;12;39;58;0;0;0;0;0;0;0;0;0;0;0;5;0;0;0;2;53;11;105;5,625;14,25;2,9375;877;5;3;23,375;0;0;-45,6875;904,75;-978,5625;1092;1;1;0;0;0;0;4;965;968;1002;995;1061;1403;390;385;423;414;5;837;1408;8,4375;4,625;0;0;0;6;-1,625;-0,25;141,375;-0,625;20;376;12;1;100;-46;7
2805;0;0;0;0;12;40;3;0;0;0;0;0;0;0;0;0;0;0;5;0;0;0;2;53;11,25;107;5,625;14,3125;3,75;878;4,875;3;23,3125;0;0;-45,75;904,25;-989,125;1079;1;1;0;0;0;0;4;954;956;989;984;1048;1386;390;385;423;414;5;826;1408;8,4375;4,625;0;0;0;6;-1,375;0,625;123,25;-8,125;19,25;378;-11;1;100;-46;7
2811;0;0;0;0;12;40;8;0;0;0;0;0;0;0;0;0;0;0;5;0;0;0;2;53;11,0625;107;5,625;14,3125;6,25;880;4,875;3;23,3125;0;0;-45,375;901,625;-996,8125;1066;1;1;0;0;0;0;4;948;947;981;977;1035;1369;391;386;424;415;5;816;1409;8,4375;4,625;0;0;0;6;-4,125;-2,75;23;-23,375;18,5;377;-10;1;100;-45;7
2817;0;0;0;0;12;40;13;0;0;0;0;0;0;0;0;0;0;0;5;0;0;0;2;53;12,875;108;5,625;14,3125;5,0625;1010;5,0625;3;23,3125;0;0;-45,6875;903,625;-996,875;1053;1;1;0;0;0;0;4;944;942;975;973;1022;1352;391;386;425;415;5;806;1409;8,4375;4,625;0;0;0;6;-4,25;-2,125;13,375;-0,375;20,25;378;-7;1;100;-46;7
2824;0;0;0;0;12;40;18;0;0;0;0;0;0;0;0;0;0;0;5;0;0;0;2;56;14,4375;109;5,625;14,3125;5,5;1179;6,3125;3;23,3125;0;0;-45,8125;904,625;-966,9375;1041;1;1;0;0;0;0;4;984;991;1022;1006;1010;1336;393;388;427;417;5;796;1409;8,4375;4,625;0;0;0;6;-2,25;-0,75;13,75;-0,125;19,25;377;-2;1;100;-46;7
2830;0;0;0;0;12;40;23;0;0;0;0;0;0;0;0;0;0;0;5;0;0;0;2;57;14,0625;111;5,625;14,25;5,125;1190;7;3;23,3125;0;0;-45,5;902,5;-969,375;1029;1;1;0;0;0;0;4;1018;1030;1064;1039;997;1320;394;390;429;418;5;786;1409;8,4375;4,625;0;0;0;6;-1,875;-0,375;13,5;-0,25;20,25;379;29;1;100;-46;7
2836;0;0;0;0;12;40;28;0;0;0;0;0;0;0;0;0;0;0;5;0;0;0;2;57;13,5;112;5,625;14,1875;5,125;1201;7,125;3;23,3125;0;0;-45,75;904;-952,625;1018;1;1;0;0;0;0;4;1041;1056;1090;1064;985;1304;396;393;431;421;5;776;1409;8,4375;4,625;0;0;0;6;-1,625;-0,5;12,25;-0,625;20,25;379;-1;1;100;-46;7
2842;0;0;0;0;12;40;33;0;0;0;0;0;0;0;0;0;0;0;5;0;0;0;2;57;13,875;113;5,625;14,25;5,375;1196;7,1875;3;23,3125;0;0;-45,3125;902,25;-956,875;1006;1;1;0;0;0;0;4;1055;1072;1109;1080;974;1289;398;395;433;422;5;767;1409;8,4375;4,625;0;0;0;6;-1,625;-0,625;11,5;-0,25;20,75;379;-18;1;100;-45;7
2848;0;0;0;0;12;40;38;0;0;0;0;0;0;0;0;0;0;0;5;0;0;0;2;57;13,4375;114;5,625;14,25;4,8125;1200;7,125;3;23,25;0;0;-45,6875;903,8125;-952,75;995;1;1;0;0;0;0;4;1063;1081;1121;1089;962;1273;400;397;436;425;5;757;1409;8,4375;4,625;0;0;0;6;-1,75;-0,875;9,625;-0,875;21;379;-2;1;100;-46;7
2854;0;0;0;0;12;40;43;0;0;0;0;0;0;0;0;0;0;0;5;0;0;0;2;57;13,8125;115;5,625;14,25;4,5625;1199;7,25;3;23,25;0;0;-45,75;904,0625;-951,375;984;1;1;0;0;0;0;4;1068;1087;1127;1101;951;1259;401;399;438;427;5;748;1409;8,4375;4,625;0;0;0;6;-1,5;-1,375;7,375;-0,25;20,75;380;14;1;100;-46;7
2860;0;0;0;0;12;40;48;0;0;0;0;0;0;0;0;0;0;0;5;0;0;0;2;58;14,0625;116;5,625;14,25;2,1875;1198;7,125;3;23,25;0;0;-45,625;903,25;-946,25;973;1;1;0;0;0;0;4;1071;1091;1133;1109;939;1244;403;400;440;429;5;739;1409;8,4375;4,625;0;0;0;6;-1,625;-1,375;6,5;-0,875;21,25;379;1;1;100;-46;7
2866;0;0;0;0;12;40;53;0;0;0;0;0;0;0;0;0;0;0;5;0;0;0;2;59;12,8125;117;5,625;14,25;4,625;1091;7,8125;3;23,25;0;0;-45,375;902,875;-935,75;962;1;1;0;0;0;0;4;1091;1113;1169;1140;928;1229;405;403;443;433;5;730;1409;8,4375;4,625;0;0;0;6;0;1;42,25;5,25;21;379;5;1;100;-45;7
2872;0;0;0;0;12;40;58;0;0;0;0;0;0;0;0;0;0;0;5;0;0;0;2;56;12,5;120;5,625;14,25;4,6875;1087;6,875;3;23,25;0;0;-45,8125;904,6875;-964,4375;952;1;1;0;0;0;0;4;1074;1092;1153;1125;918;1215;407;404;445;435;5;722;1410;8,4375;4,625;0;0;0;6;-0,125;0,5;43,5;-0,125;19,75;380;25;1;100;-46;7
2878;0;0;0;0;12;41;3;0;0;0;0;0;0;0;0;0;0;0;5;0;0;0;2;56;12,8125;120;5,625;14,1875;3,0625;1090;6,625;3;23,25;0;0;-45,6875;903,75;-957,6875;942;1;1;0;0;0;0;4;1067;1082;1143;1115;907;1201;407;405;448;436;5;713;1410;8,4375;4,625;0;0;0;6;-0,75;-0,25;43,625;-0,125;20,5;380;-24;1;100;-46;7
2884;0;0;0;0;12;41;8;0;0;0;0;0;0;0;0;0;0;0;5;0;0;0;2;59;16,0625;122;5,625;14,25;5,875;1456;7,5;3;23,25;0;0;-45,875;904,9375;-958,6875;932;1;1;0;0;0;0;4;1077;1088;1145;1120;896;1187;409;407;450;439;5;705;1410;8,4375;4,625;0;0;0;6;-1,125;-0,625;43,625;-0,125;20;380;4;1;100;-46;7
2890;0;0;0;0;12;41;13;0;0;0;0;0;0;0;0;0;0;0;5;0;0;0;2;63;19,375;122;5,625;14,3125;6,5;1670;9,375;3;23,1875;0;0;-45,6875;903,75;-944,25;922;1;1;0;0;0;0;4;1129;1136;1201;1169;886;1173;411;410;454;442;5;696;1410;8,4375;4,625;0;0;0;6;-1,125;-0,625;43,25;-0,125;19,75;380;1;1;100;-46;7
2896;0;0;0;0;12;41;18;0;0;0;0;0;0;0;0;0;0;0;5;0;0;0;2;69;22,9375;122;5,625;14,25;5,0625;1892;11,5;3;23,1875;0;0;-45,625;903,4375;-938,3125;913;1;1;0;0;0;0;4;1172;1190;1264;1213;876;1159;416;416;460;448;5;688;1410;8,4375;4,625;0;0;0;6;-2,25;-1;43,25;-0,125;21,75;380;-8;1;100;-46;7
2902;0;0;0;0;12;41;23;0;0;0;0;0;0;0;0;0;0;0;5;0;0;0;2;71;23,375;123;5,625;14,25;6;1946;13,125;3;23,1875;0;0;-45,5625;902;-973,375;903;1;1;0;0;0;0;4;1207;1250;1287;1243;866;1146;422;423;468;455;5;680;1410;8,4375;4,625;0;0;0;6;-1,5;-1,125;43;-0,125;19;380;33;1;100;-46;7
2908;0;0;0;0;12;41;28;0;0;0;0;0;0;0;0;0;0;0;5;0;0;0;2;72;23,5;125;5,625;14,3125;5;1935;13,625;3;23,125;0;0;-45,375;901,8125;-967,375;894;1;1;0;0;0;0;4;1243;1312;1323;1280;856;1133;427;428;473;460;5;672;1410;8,4375;4,625;0;0;0;6;-2,125;-1;43,125;-0,125;19,75;381;18;1;100;-45;7
2914;0;0;0;0;12;41;33;0;0;0;0;0;0;0;0;0;0;0;5;0;0;0;2;72;23,5;129;5,625;14,3125;4,6875;1943;13,6875;3;23,125;0;0;-45,8125;903,75;-971,125;885;1;1;0;0;0;0;4;1261;1344;1328;1293;846;1120;432;434;478;465;5;665;1410;8,4375;4,625;0;0;0;6;-1,375;-0,75;43,125;-0,125;20,25;380;18;1;100;-46;7
2920;0;0;0;0;12;41;38;0;0;0;0;0;0;0;0;0;0;0;5;0;0;0;2;62;10,1875;130;5,625;14,1875;-0,8125;819;11,0625;3;23,125;0;0;-45,6875;905,125;-972,25;876;1;1;0;0;0;0;4;1240;1328;1304;1278;837;1108;437;441;485;471;5;657;1410;8,4375;4,625;0;0;0;6;-0,875;-0,75;43,25;-0,125;19,5;380;-6;1;100;-46;7
2926;0;0;0;0;12;41;43;0;0;0;0;0;0;0;0;0;0;0;5;0;0;0;2;50;10,6875;130;5,625;14,1875;1;764;6;3;23,125;0;0;-45,75;905,5;-1062,375;867;1;1;0;0;0;0;4;1154;1222;1210;1195;827;1095;438;442;486;472;5;650;1410;8,4375;4,625;0;0;0;6;-0,875;-0,875;43,375;-0,125;19,5;381;19;1;100;-46;7
2932;0;0;0;0;12;41;48;0;0;0;0;0;0;0;0;0;0;0;5;0;0;0;2;52;12;133;5,625;14,25;6,625;1025;6,125;3;23,125;0;0;-45,4375;901,875;-993;859;1;1;0;0;0;0;4;1114;1168;1166;1153;818;1083;438;442;486;472;5;643;1410;8,4375;4,625;0;0;0;6;-1,375;-1,25;44;0,25;20,75;381;-19;1;100;-45;7
2938;0;0;0;0;12;41;53;0;0;0;0;0;0;0;0;0;0;0;5;0;0;0;2;59;13,0625;135;5,625;14,3125;7,9375;1202;7,6875;3;23,0625;0;0;-45,6875;903,6875;-998,0625;851;1;1;0;0;0;0;4;1128;1172;1182;1157;809;1071;438;442;486;472;5;635;1410;8,4375;4,625;0;0;0;6;0;-0,625;51,125;3;20;380;-20;1,0625;100;-46;7
2944;0;0;0;0;12;41;58;0;0;0;0;0;0;0;0;0;0;0;5;0;0;0;2;53;12,9375;134;5,625;14,25;2,75;975;6,1875;3;23,0625;0;0;-45,75;904,25;-1009,9375;842;1;1;0;0;0;0;4;1108;1147;1164;1144;800;1059;438;443;488;473;5;629;1411;8,4375;4,625;0;0;0;6;-0,125;-0,875;50,375;-0,125;20,5;381;0;1;100;-46;7
2950;0;0;0;0;12;42;3;0;0;0;0;0;0;0;0;0;0;0;5;0;0;0;2;53;12,0625;135;5,625;14,25;3,375;981;5,875;3;23,0625;0;0;-45,5;902,375;-1023,1875;835;1;1;0;0;0;0;4;1091;1126;1145;1125;791;1047;438;443;489;474;5;622;1411;8,4375;4,625;0;0;0;6;-0,5;-0,5;50,5;-0,25;20;381;-2;1;100;-46;7
2956;0;0;0;0;12;42;8;0;0;0;0;0;0;0;0;0;0;0;5;0;0;0;2;53;12,875;137;5,625;14,3125;4,4375;972;5,625;3;23,0625;0;0;-45,5;902,375;-1023,1875;827;1;1;0;0;0;0;4;1080;1112;1132;1109;783;1035;439;444;489;474;5;615;1411;8,4375;4,625;0;0;0;6;-1;-0,875;50,5;-0,125;20,5;380;-2;1;100;-45;7
2962;0;0;0;0;12;42;13;0;0;0;0;0;0;0;0;0;0;0;5;0;0;0;2;52;12,0625;140;5,625;14,25;2,25;969;5,5625;3;23,0625;0;0;-45,6875;903,8125;-1039,4375;819;1;1;0;0;0;0;4;1071;1102;1122;1097;774;1024;440;444;490;475;5;608;1411;8,4375;4,625;0;0;0;6;-0,75;-1,125;50,375;-0,125;20,5;381;11;1;100;-46;7
2968;0;0;0;0;12;42;18;0;0;0;0;0;0;0;0;0;0;0;5;0;0;0;2;50;10,9375;139;5,625;14,1875;2,25;804;5,3125;3;23,0625;0;0;-45,8125;904,625;-1068,3125;812;1;1;0;0;0;0;4;1043;1068;1088;1070;766;1013;440;445;491;475;5;602;1411;8,4375;4,625;0;0;0;6;-0,75;-1,25;50,375;-0,125;20;381;-2;1;100;-46;7
2974;0;0;0;0;12;42;23;0;0;0;0;0;0;0;0;0;0;0;5;0;0;0;2;49;11,1875;140;5,625;14,25;4,1875;801;5,125;3;23,0625;0;0;-45,5;902,25;-1090,4375;804;1;1;0;0;0;0;4;1011;1031;1051;1037;758;1002;440;445;491;475;5;595;1406;8,4375;4,625;0;0;0;6;-0,5;-1,125;50,25;-0,125;20;380;24;1;100;-45;7
2980;0;0;0;0;12;42;28;0;0;0;0;0;0;0;0;0;0;0;5;0;0;0;2;50;11,3125;140;5,625;14,3125;4,375;798;5,125;3;23,0625;0;0;-45,625;903,4375;-1098,3125;797;1;1;0;0;0;0;4;988;1005;1025;1013;749;991;440;445;491;475;5;589;1394;8,4375;4,625;0;0;0;6;-0,875;-1,25;50,25;-0,125;20,5;380;-25;1;100;-46;7
2986;0;0;0;0;12;42;33;0;0;0;0;0;0;0;0;0;0;0;5;0;0;0;2;49;11,1875;144;5,625;14,25;2,3125;796;5,0625;3;23,0625;0;0;-45,75;904,0625;-1115,0625;790;1;1;0;0;0;0;4;972;987;1006;995;742;980;440;445;491;475;5;583;1382;8,4375;4,625;0;0;0;6;-0,625;-1,375;50,125;-0,25;20;381;-6;1;100;-46;7
2992;0;0;0;0;12;42;38;0;0;0;0;0;0;0;0;0;0;0;5;0;0;0;2;50;13,875;145;5,625;14,3125;3,625;1006;5,25;3;23;0;0;-45,375;901,625;-1118,875;783;1;1;0;0;0;0;4;962;974;993;983;734;970;440;445;491;475;5;577;1368;8,4375;4,625;0;0;0;6;-0,5;-1,125;50;-0,25;19;381;4;1;100;-45;7
2998;0;0;0;0;12;42;43;0;0;0;0;0;0;0;0;0;0;0;5;0;0;0;2;50;11,25;143;5,625;14,25;3,875;783;5,125;3;23;0;0;-45,5;902,25;-1145,375;776;1;1;0;0;0;0;4;964;976;995;981;726;959;440;445;491;475;5;571;1354;8,4375;4,625;0;0;0;6;-0,75;-0,875;50;-0,125;19,5;381;-7;1;100;-45;7
3004;0;0;0;0;12;42;48;0;0;0;0;0;0;0;0;0;0;0;5;0;0;0;2;50;10,4375;145;5,625;14,1875;3,0625;779;4,5625;3;23;0;0;-45,5;902,3125;-1189,25;769;1;1;0;0;0;0;4;961;972;991;977;718;949;440;444;490;475;5;565;1339;8,5;4,625;0;0;0;6;-0,25;-1;49,875;-0,125;18,5;381;6;1;100;-45;7
3010;0;0;0;0;12;42;53;0;0;0;0;0;0;0;0;0;0;0;5;0;0;0;2;49;10,25;147;5,625;14,125;-1,0625;778;4,25;3;23;0;0;-45,4375;902,0625;-1212,625;763;1;1;0;0;0;0;4;955;977;991;977;711;939;440;443;489;474;5;559;1324;8,5;4,625;0;0;0;6;-0,25;-0,875;49,875;-0,125;17,5;380;41;1;100;-45;7
3016;0;0;0;0;12;42;58;0;0;0;0;0;0;0;0;0;0;0;5;0;0;0;2;48;10,625;148;5,625;14,125;2,625;774;4,1875;3;23;0;0;-45,625;903,375;-1222,9375;756;1;1;0;0;0;0;4;953;981;991;977;704;929;439;442;487;473;5;554;1309;8,5;4,625;0;0;0;6;-0,75;-0,875;50,125;-0,125;18,5;380;-11;1;100;-46;7
3022;0;0;0;0;12;43;3;0;0;0;0;0;0;0;0;0;0;0;5;0;0;0;2;48;10,75;150;5,625;14,125;3,125;777;4,1875;3;23;0;0;-45,375;902,6875;-1249,5625;750;1;1;0;0;0;0;4;953;983;983;973;697;919;438;440;486;471;5;548;1293;8,5;4,625;0;0;0;6;-0,75;-1,125;49,75;-0,125;18,75;380;4;1;100;-45;7
3028;0;0;0;0;12;43;8;0;0;0;0;0;0;0;0;0;0;0;5;0;0;0;2;48;10,6875;151;5,625;14,0625;1,4375;766;4,1875;3;23;0;0;-45,4375;902;-1267,625;744;1;1;0;0;0;0;4;953;988;983;968;689;909;437;439;484;470;5;543;1277;8,5;4,625;0;0;0;6;-0,5;-1;49,875;-0,125;18,5;381;5;1;100;-45;7
3034;0;0;0;0;12;43;13;0;0;0;0;0;0;0;0;0;0;0;5;0;0;0;2;48;11;150;5,625;14,125;4,1875;734;4,25;3;23;0;0;-45,75;904,3125;-1279,8125;738;1;1;0;0;0;0;4;956;983;982;963;682;900;436;437;483;468;5;538;1261;8,5;4,625;0;0;0;6;-0,75;-1,125;49,875;-0,125;19,25;381;4;1;100;-46;7
3040;0;0;0;0;12;43;18;0;0;0;0;0;0;0;0;0;0;0;5;0;0;0;2;50;11,4375;151;5,625;14,125;4,125;797;5,1875;3;23;0;0;-45,375;901,625;-1223,875;732;1;1;0;0;0;0;4;962;988;978;968;676;890;435;437;483;468;5;532;1245;8,5;4,625;0;0;0;6;-0,625;-1;49,625;-0,25;18,75;381;1;1;100;-45;7
3046;0;0;0;0;12;43;23;0;0;0;0;0;0;0;0;0;0;0;5;0;0;0;2;48;10,9375;152;5,625;14,1875;2,5625;794;5;3;22,9375;0;0;-45,4375;903;-1248,8125;727;1;1;0;0;0;0;4;943;962;961;953;668;881;435;437;483;467;5;527;1228;8,5;4,625;0;0;0;6;-1;-0,875;49,625;-0,25;19,75;381;5;1;100;-45;7
3052;0;0;0;0;12;43;28;0;0;0;0;0;0;0;0;0;0;0;5;0;0;0;2;54;15,625;157;5,625;14,3125;8,4375;1310;6,75;3;22,9375;0;0;-45,625;903,4375;-1189,9375;723;1;1;0;0;0;0;4;968;984;994;977;662;872;435;437;482;466;5;522;1212;8,5;4,625;0;0;0;6;0,75;-0,375;47;-1,625;19,25;381;-20;1;100;-46;7
3058;0;0;0;0;12;43;33;0;0;0;0;0;0;0;0;0;0;0;5;0;0;0;2;55;15,375;159;5,625;14,3125;2,9375;1307;7,9375;3;22,9375;0;0;-45,75;904,375;-1182,6875;716;1;1;0;0;0;0;4;1027;1037;1071;1040;656;863;435;437;482;466;5;517;1196;8,5;4,625;0;0;0;6;0,5;-3,25;51,875;-0,375;19,5;381;-12;1;100;-46;7
3064;0;0;0;0;12;43;38;0;0;0;0;0;0;0;0;0;0;0;5;0;0;0;2;55;14,1875;159;5,625;14,1875;4,5;1205;7,6875;3;22,9375;0;0;-45,5625;903,0625;-1148,625;710;1;1;0;0;0;0;4;1056;1066;1108;1074;649;854;437;440;483;468;5;512;1180;8,5;4,625;0;0;0;6;0,375;-3;53,875;2,25;20;381;-9;1;100;-46;7
3070;0;0;0;0;12;43;43;0;0;0;0;0;0;0;0;0;0;0;5;0;0;0;2;54;12,4375;160;5,625;14,1875;3,0625;1092;7;3;22,9375;0;0;-45,375;901,5;-1143,375;704;1;1;0;0;0;0;4;1059;1069;1106;1076;643;846;439;441;484;469;5;508;1163;8,5;4,625;0;0;0;6;0,375;-0,875;69,75;4,25;21,75;380;-43;1;100;-45;7
3076;0;0;0;0;12;43;48;0;0;0;0;0;0;0;0;0;0;0;5;0;0;0;2;53;13,0625;160;5,625;14,1875;3,75;1080;6,6875;3;22,9375;0;0;-45,6875;903,125;-1129,0625;699;1;1;0;0;0;0;4;1054;1064;1100;1067;636;837;439;441;485;469;5;503;1147;8,5;4,625;0;0;0;6;0,625;1,875;106,625;9;22,75;381;36;1;100;-46;7
3083;0;0;0;0;12;43;53;0;0;0;0;0;0;0;0;0;0;0;5;0;0;0;2;56;14,0625;160;5,625;14,25;3,0625;1272;7,0625;3;22,9375;0;0;-45,5;903,5625;-1140,4375;694;1;1;0;0;0;0;4;1070;1083;1120;1082;630;828;440;441;486;470;5;498;1131;8,5;4,625;0;0;0;6;-0,25;3,5;136,625;3,125;22,5;383;37;1;100;-45;7
3089;0;0;0;0;12;43;58;0;0;0;0;0;0;0;0;0;0;0;5;0;0;0;2;59;17,5;167;5,625;14,25;1,875;1473;8,6875;3;22,875;0;0;-45,5625;904,3125;-1125,4375;689;1;1;0;0;0;0;4;1114;1127;1164;1127;624;820;442;444;488;473;5;494;1115;8,5;4,625;0;0;0;6;1;3,125;141,625;-0,625;23,25;384;3;1;100;-46;7
3095;0;0;0;0;12;44;3;0;0;0;0;0;0;0;0;0;0;0;5;0;0;0;2;58;12,3125;166;5,625;14,1875;5,1875;1187;8,75;3;22,875;0;0;-45,3125;901,9375;-1112,5625;684;1;1;0;0;0;0;4;1137;1151;1188;1159;618;812;445;447;491;476;5;489;1099;8,5;4,625;0;0;0;6;2;1,875;142,875;0;24,75;384;-28;1;100;-45;7
3101;0;0;0;0;12;44;8;0;0;0;0;0;0;0;0;0;0;0;5;0;0;0;2;52;11,6875;166;5,625;14,1875;3,8125;972;6,6875;3;22,875;0;0;-45,5625;904,125;-1115,75;679;1;1;0;0;0;0;4;1095;1110;1149;1128;613;804;446;447;492;477;5;485;1083;8,5;4,625;0;0;0;6;-0,125;1,125;142,25;-0,25;26,25;386;31;1;100;-46;7
3107;0;0;0;0;12;44;13;0;0;0;0;0;0;0;0;0;0;0;5;0;0;0;2;51;11,9375;169;5,625;14,1875;2,125;969;5,625;3;22,875;0;0;-45,6875;904,9375;-1132,375;674;1;1;0;0;0;0;4;1062;1079;1109;1096;607;796;446;447;492;477;5;481;1068;8,5;4,625;0;0;0;6;-0,125;0,75;142,75;0;27;387;7;1,0625;100;-46;7
3113;0;0;0;0;12;44;18;0;0;0;0;0;0;0;0;0;0;0;5;0;0;0;2;49;11,6875;174;5,625;14,1875;3,125;975;5,3125;3;22,875;0;0;-45,625;903,4375;-1148,375;669;1;1;0;0;0;0;4;1040;1059;1083;1074;601;788;446;447;492;477;5;477;1052;8,5;4,625;0;0;0;6;-0,375;1,25;141;-0,625;27,5;388;14;1;100;-46;7
3119;0;0;0;0;12;44;23;0;0;0;0;0;0;0;0;0;0;0;5;0;0;0;2;48;10,1875;174;5,625;14,125;2,875;822;4,9375;3;22,875;0;0;-45,8125;904,625;-1208,8125;665;1;1;0;0;0;0;4;1024;1044;1061;1056;596;780;446;446;492;477;5;473;1037;8,5;4,625;0;0;0;6;-2,5;-1,25;141,75;0,25;28,25;389;34;1,0625;100;-46;7
3125;0;0;0;0;12;44;28;0;0;0;0;0;0;0;0;0;0;0;5;0;0;0;2;46;10,3125;172;5,625;14,125;2,4375;796;4,3125;3;22,875;0;0;-45,4375;903;-1261,625;660;1;1;0;0;0;0;4;1002;1031;1043;1037;590;773;444;444;491;477;5;469;1022;8,5;4,625;0;0;0;6;-3,5;-0,75;152,625;3,5;27,25;391;-33;1;100;-45;7
3131;0;0;0;0;12;44;33;0;0;0;0;0;0;0;0;0;0;0;5;0;0;0;2;46;10,8125;173;5,625;14,125;3,5;776;4,25;3;22,8125;0;0;-45,375;901,625;-1291;655;1;1;0;0;0;0;4;983;1014;1025;1018;584;765;443;441;489;475;5;465;1007;8,5;4,625;0;0;0;6;-3,5;0,25;171,25;1,625;25,75;391;18;1;100;-45;7
3137;0;0;0;0;12;44;38;0;0;0;0;0;0;0;0;0;0;0;5;0;0;0;2;46;10,6875;174;5,625;14,125;1,3125;774;4,25;3;22,8125;0;0;-45,6875;903,6875;-1315,625;651;1;1;0;0;0;0;4;973;1000;1014;1004;580;758;441;439;488;473;5;461;992;8,5;4,625;0;0;0;6;-3;0,625;124,625;-13,125;22,75;391;3;1;100;-46;7
3143;0;0;0;0;12;44;43;0;0;0;0;0;0;0;0;0;0;0;5;0;0;0;2;49;13,1875;176;5,625;14,1875;4,9375;1071;5,8125;3;22,8125;0;0;-45,6875;903,625;-1203,25;647;1;1;0;0;0;0;4;981;1011;1020;1010;574;751;441;438;487;472;5;457;978;8,5;4,625;0;0;0;6;-2,75;-0,375;61,625;-13,5;21,75;391;-6;1;100;-46;7
3149;0;0;0;0;12;44;48;0;0;0;0;0;0;0;0;0;0;0;5;0;0;0;2;50;10,6875;176;5,625;14,125;3,8125;955;6,1875;3;22,8125;0;0;-45,625;903,4375;-1198,5;643;1;1;0;0;0;0;4;1003;1036;1037;1030;570;744;441;438;487;472;5;453;964;8,5;4,625;0;0;0;6;-4,125;-1,625;351,5;-13,5;22;391;4;1;100;-46;7
3155;0;0;0;0;12;44;53;0;0;0;0;0;0;0;0;0;0;0;5;0;0;0;2;54;13,5625;178;5,625;14,1875;3,4375;1546;7,0625;3;22,8125;0;0;-45,625;903,25;-1205,9375;639;1;1;0;0;0;0;4;1008;1032;1039;1033;564;737;441;438;487;472;5;450;949;8,5;4,625;0;0;0;6;-4;-2,125;325,625;-0,625;22,75;394;25;1;100;-46;7
3161;0;0;0;0;12;44;58;0;0;0;0;0;0;0;0;0;0;0;5;0;0;0;2;47;10,75;179;5,625;14,1875;2,25;807;5,5;3;22,8125;0;0;-45,625;903,4375;-1273;634;1;1;0;0;0;0;4;985;1011;1021;1015;559;729;441;438;487;472;5;446;936;8,5;4,625;0;0;0;6;-2,5;-1;323,375;-0,75;23,25;393;-10;1;100;-46;7
3167;0;0;0;0;12;45;3;0;0;0;0;0;0;0;0;0;0;0;5;0;0;0;2;46;10,875;185;5,625;14,125;0,75;803;5;3;22,8125;0;0;-45,4375;902;-1298,125;631;1;1;0;0;0;0;4;961;985;993;992;554;723;441;438;487;472;5;442;922;8,5;4,625;0;0;0;6;-1,125;-0,375;322,75;0;23;393;-9;1;100;-45;7
3173;0;0;0;0;12;45;8;0;0;0;0;0;0;0;0;0;0;0;5;0;0;0;2;60;23;184;5,625;14,3125;8,4375;1858;8,3125;3;22,8125;0;0;-45,625;903,25;-1235,25;631;1;1;0;0;0;0;4;1017;1032;1039;1034;550;716;441;438;487;472;5;439;909;8,5;4,625;0;0;0;6;2,5;-0,375;324;-0,125;23,75;394;6;1;100;-46;7
3179;0;0;0;0;12;45;13;0;0;0;0;0;0;0;0;0;0;0;5;0;0;0;2;69;26,0625;186;5,625;14,25;5,0625;2104;13,5625;3;22,75;0;0;-45,625;903,25;-1257,25;623;1;1;0;0;0;0;4;1116;1166;1155;1147;545;709;446;445;493;477;5;436;895;8,5;4,625;0;0;0;6;6;-0,25;322,875;0;28,25;393;5;1;100;-46;7
3185;0;0;0;0;12;45;18;0;0;0;0;0;0;0;0;0;0;0;5;0;0;0;2;72;28,625;190;5,625;14,25;6,6875;2293;18,375;3;22,75;0;0;-45,625;903,5625;-814,9375;619;1;1;0;0;0;0;4;1160;1217;1220;1183;540;703;453;455;501;485;5;432;882;8,5;4,625;0;0;0;6;5,5;-0,25;323,875;0,25;36,25;393;3;1;100;-46;7
3191;0;0;0;0;12;45;23;0;0;0;0;0;0;0;0;0;0;0;5;0;0;0;2;72;28,8125;195;5,625;14,25;6,4375;2318;20,8125;3;22,6875;0;0;-45,75;905,4375;-789,3125;616;1;1;0;0;0;0;4;1201;1212;1247;1136;536;697;460;464;512;490;5;429;870;8,5;4,625;0;0;0;6;4,625;1,875;324,25;-0,25;45,75;393;-7;1;100;-46;7
3197;0;0;0;0;12;45;28;0;0;0;0;0;0;0;0;0;0;0;5;0;0;0;2;72;29,0625;194;5,625;14,25;6,875;2330;21,5;3;22,6875;0;0;-45,75;904,125;-785,6875;612;1;1;0;0;0;0;4;1194;1215;1255;1135;531;690;466;472;521;494;5;426;857;8,5;4,625;0;0;0;6;2,5;0,5;322,375;-0,375;56;393;-34;1,0625;100;-46;7
3203;0;0;0;0;12;45;33;0;0;0;0;0;0;0;0;0;0;0;5;0;0;0;2;72;27,9375;197;5,625;14,25;5,875;2352;21,8125;3;22,625;0;0;-45,4375;903,0625;-792,4375;609;1;1;0;0;0;0;4;1206;1215;1268;1127;526;684;470;479;529;495;5;423;845;8,5;4,625;0;0;0;6;6,625;2,25;319,125;-0,25;62;353;-602;0,9375;100;-45;7
3209;0;0;0;0;12;45;38;0;0;0;0;0;0;0;0;0;0;0;5;0;0;0;2;72;29;200;5,625;14,3125;7,3125;2368;21,875;3;22,625;0;0;-45,1875;901,1875;-772,4375;605;1;1;0;0;0;0;4;1234;1215;1280;1119;522;678;473;484;536;496;5;420;832;8,5;4,625;0;0;0;6;8,375;-5,25;317,25;-0,75;75,25;339;205;1;100;-45;7
3215;0;0;0;0;12;45;43;0;0;0;0;0;0;0;0;0;0;0;5;0;0;0;2;65;28,0625;203;5,625;14,25;7,4375;2400;22,0625;3;22,5625;0;0;-45,4375;902,9375;-779,9375;602;1;1;0;0;0;0;4;1224;1221;1283;1129;518;672;475;488;542;496;5;417;820;8,5;4,625;0;0;0;6;6,5;-2,125;316,375;2;88;408;492;1,1875;100;-45;7
3221;0;0;0;0;12;45;48;0;0;0;0;0;0;0;0;0;0;0;5;0;0;0;2;70;29,125;202;5,625;14,25;5,4375;2426;21,375;3;22,5625;0;0;-45,5625;903,0625;-779,8125;599;1;1;0;0;0;0;4;1228;1226;1283;1131;514;666;476;491;548;496;5;414;808;8,5;4,625;0;0;0;6;5,75;1,125;315,125;0,5;97,25;422;224;1,1875;100;-46;7
3227;0;0;0;0;12;45;53;0;0;0;0;0;0;0;0;0;0;0;5;0;0;0;2;71;29,4375;202;5,625;14,25;6,375;2405;20,625;3;22,5;0;0;-45,8125;905;-763,125;595;1;1;0;0;0;0;4;1225;1233;1281;1141;509;660;476;493;552;496;5;411;797;8,5;4,625;0;0;0;6;12,625;-1,875;308,125;-0,625;112,5;516;1823;1;100;-46;7
3233;0;0;0;0;12;45;58;0;0;0;0;0;0;0;0;0;0;0;5;0;0;0;2;70;28,125;204;5,625;14,3125;6,5625;2363;19,75;3;22,5;0;0;-45,375;901,1875;-760,25;592;1;1;0;0;0;0;4;1215;1237;1279;1140;505;654;476;495;556;496;5;408;786;8,5;4,625;0;0;0;6;12,875;-4,625;295,25;-0,75;119,5;727;2423;1;100;-45;7
3239;0;0;0;0;12;46;3;0;0;0;0;0;0;0;0;0;0;0;5;0;0;0;2;70;28,875;204;5,625;14,25;6,5625;2337;19,8125;3;22,5;0;0;-45,6875;904,8125;-744,0625;589;1;1;0;0;0;0;4;1186;1232;1272;1142;501;648;476;496;559;496;5;405;774;8,5;4,625;0;0;0;6;7,875;1,875;289,875;-0,125;121,25;929;2234;0,8125;100;-46;7
3245;0;0;0;0;12;46;8;0;0;0;0;0;0;0;0;0;0;0;5;0;0;0;2;70;28,625;204;5,625;14,25;7,75;2328;19,75;3;22,4375;0;0;-45,6875;903,6875;-729,3125;586;1;1;0;0;0;0;4;1174;1224;1270;1140;497;642;475;497;560;496;5;402;763;8,5;4,625;0;0;0;6;11,5;0,25;294,25;0,25;117;1053;1585;0,875;100;-46;7
3251;0;0;0;0;12;46;13;0;0;0;0;0;0;0;0;0;0;0;5;0;0;0;2;70;28,0625;213;5,625;14,25;4,3125;2337;20,0625;3;22,4375;0;0;-45,625;903,3125;-729,5625;583;1;1;0;0;0;0;4;1176;1217;1270;1136;493;636;473;498;563;495;5;399;752;8,5;4,625;0;0;0;6;6,5;-0,25;301,125;-0,625;112,75;1151;1260;0,625;100;-46;7
3257;0;0;0;0;12;46;18;0;0;0;0;0;0;0;0;0;0;0;5;0;0;0;2;69;28,5;209;5,625;14,25;5,4375;2361;20,25;3;22,375;0;0;-45,3125;900,9375;-720,125;580;1;1;0;0;0;0;4;1167;1217;1266;1142;490;631;472;499;566;494;5;396;742;8,5;4,625;0;0;0;6;7,625;-0,125;307,75;-0,625;104;1155;-110;0,9375;100;-45;7
3263;0;0;0;0;12;46;23;0;0;0;0;0;0;0;0;0;0;0;5;0;0;0;2;70;27,25;217;5,625;14,25;5,875;2400;20,25;3;22,375;0;0;-45,5625;902,75;-726,3125;576;1;1;0;0;0;0;4;1184;1218;1268;1136;486;625;471;500;569;493;5;394;731;8,5;4,625;0;0;0;6;10,75;2,625;307,125;-1,375;104,25;1125;140;0,9375;100;-46;7
3269;0;0;0;0;12;46;28;0;0;0;0;0;0;0;0;0;0;0;5;0;0;0;2;66;20,8125;220;5,625;14,25;6,875;2069;16,625;3;22,3125;0;0;-45,6875;904,9375;-957,75;574;1;1;0;0;0;0;4;1190;1242;1272;1173;482;620;470;501;571;493;5;391;721;8,5;4,625;0;0;0;6;11,75;-5;303,5;-0,75;109,25;1171;688;1,1875;100;-46;7
3275;0;0;0;0;12;46;33;0;0;0;0;0;0;0;0;0;0;0;5;0;0;0;2;58;14,75;211;5,625;14,25;4,3125;1583;10,125;3;22,3125;0;0;-45,6875;904;-1007,625;571;1;1;0;0;0;0;4;1174;1233;1270;1195;478;615;464;498;570;490;5;388;711;8,5625;4,625;0;0;0;6;16,25;1,625;296,125;1;114,5;1319;2048;1;100;-46;7
3281;0;0;0;0;12;46;38;0;0;0;0;0;0;0;0;0;0;0;5;0;0;0;2;55;15,6875;220;5,625;14,25;5;1486;8,0625;3;22,3125;0;0;-45,5;904,625;-1042,1875;568;1;1;0;0;0;0;4;1153;1201;1249;1200;475;610;456;489;562;485;5;386;701;8,5625;4,625;0;0;0;6;5,625;-13,875;284,375;-1,625;113,25;1492;1807;0,75;100;-46;7
3287;0;0;0;0;12;46;43;0;0;0;0;0;0;0;0;0;0;0;5;0;0;0;2;54;16,75;215;5,625;14,25;5,625;1607;7,5625;3;22,3125;0;0;-45,6875;903,5625;-1045,75;566;1;1;0;0;0;0;4;1139;1182;1229;1201;471;605;449;481;556;480;5;384;691;8,5625;4,625;0;0;0;6;3,625;5,625;283;1,75;98,75;1506;-19;1;100;-46;7
3293;0;0;0;0;12;46;48;0;0;0;0;0;0;0;0;0;0;0;5;0;0;0;2;57;17,125;222;5,625;14,25;5,625;1669;9,125;3;22,3125;0;0;-45,625;903,375;-1058,0625;563;1;1;0;0;0;0;4;1156;1189;1238;1218;468;600;444;476;551;477;5;381;681;8,5625;4,625;0;0;0;6;6,625;14,375;299,125;4;85,75;1465;-521;1,0625;100;-46;7
3299;0;0;0;0;12;46;53;0;0;0;0;0;0;0;0;0;0;0;5;0;0;0;2;57;17,375;220;5,625;14,25;1,875;1688;9,9375;3;22,25;0;0;-45,25;901,5;-1061,5625;560;1;1;0;0;0;0;4;1160;1194;1244;1228;465;595;440;472;548;475;5;379;672;8,5625;4,625;0;0;0;6;8,875;17,25;319,75;5,375;76,5;1411;-798;1,25;100;-45;7
3305;0;0;0;0;12;46;58;0;0;0;0;0;0;0;0;0;0;0;5;0;0;0;2;57;17,375;222;5,625;14,25;2,625;1687;10,1875;3;22,25;0;0;-45,4375;901,875;-1066,25;558;1;1;0;0;0;0;4;1161;1195;1247;1232;461;590;436;468;545;474;5;377;663;8,5625;4,625;0;0;0;6;14,5;9,75;334,625;1,625;78;1392;206;1,0625;100;-45;7
3311;0;0;0;0;12;47;3;0;0;0;0;0;0;0;0;0;0;0;5;0;0;0;2;57;17,4375;226;5,625;14,25;0,625;1688;10,1875;3;22,25;0;0;-45,4375;902,1875;-1072,1875;555;1;1;0;0;0;0;4;1161;1195;1248;1233;458;585;432;464;542;472;5;374;654;8,5625;4,625;0;0;0;6;4;3,5;340,125;-0,625;78,5;1459;257;0,875;100;-45;7
3317;0;0;0;0;12;47;8;0;0;0;0;0;0;0;0;0;0;0;5;0;0;0;2;57;17,4375;225;5,625;14,25;4,5;1697;10,3125;3;22,25;0;0;-45,75;904,0625;-1084,5;553;1;1;0;0;0;0;4;1162;1195;1249;1233;454;580;428;460;539;471;5;372;645;8,5625;4,625;0;0;0;6;9,25;23,375;343;2,875;75,5;1423;-467;1,125;100;-46;7
3323;0;0;0;0;12;47;13;0;0;0;0;0;0;0;0;0;0;0;5;0;0;0;2;57;16,9375;236;5,625;14,25;5,375;1713;10,3125;3;22,25;0;0;-45,5625;902,8125;-1081,625;550;1;1;0;0;0;0;4;1163;1191;1249;1233;451;575;424;457;536;469;5;370;636;8,5625;4,6875;0;0;0;6;8;22,75;358,125;4,5;75,25;1396;-331;1,125;100;-46;7
3329;0;0;0;0;12;47;18;0;0;0;0;0;0;0;0;0;0;0;5;0;0;0;2;57;17,0625;226;5,625;14,25;5,8125;1705;10,4375;3;22,1875;0;0;-45,5;904,4375;-1100,9375;548;1;1;0;0;0;0;4;1163;1190;1251;1233;448;570;421;453;532;467;5;368;627;8,5625;4,6875;0;0;0;6;11,25;20,875;19,75;4,625;78;1379;-72;1,1875;100;-45;7
3336;0;0;0;0;12;47;23;0;0;0;0;0;0;0;0;0;0;0;5;0;0;0;2;57;16,625;229;5,625;14,25;5,8125;1724;10,4375;3;22,1875;0;0;-45,5;904,4375;-1091,125;545;1;1;0;0;0;0;4;1159;1191;1251;1233;445;566;417;449;529;466;5;365;618;8,5625;4,6875;0;0;0;6;7,125;6,125;40,25;0,875;77,25;1360;-529;1,125;100;-45;7
3342;0;0;0;0;12;47;28;0;0;0;0;0;0;0;0;0;0;0;5;0;0;0;2;57;17,375;229;5,625;14,25;4,9375;1703;10,4375;3;22,1875;0;0;-45,625;904,0625;-1105,3125;543;1;1;0;0;0;0;4;1161;1192;1251;1232;442;561;413;446;526;465;5;363;610;8,5625;4,6875;0;0;0;6;8,25;1;53,5;-3,5;86,25;1388;979;0,75;100;-46;7
3348;0;0;0;0;12;47;33;0;0;0;0;0;0;0;0;0;0;0;5;0;0;0;2;57;17,3125;233;5,625;14,25;5,875;1688;10,375;3;22,1875;0;0;-45,75;904,8125;-1106,8125;541;1;1;0;0;0;0;4;1160;1192;1251;1230;438;557;410;442;523;463;5;362;602;8,5625;4,6875;0;0;0;6;8,375;6,875;65,875;0,875;83,75;1427;389;1;100;-46;7
3354;0;0;0;0;12;47;38;0;0;0;0;0;0;0;0;0;0;0;5;0;0;0;2;57;17,25;232;5,625;14,25;6,6875;1683;10,375;3;22,125;0;0;-45,5625;905,125;-1111,5;538;1;1;0;0;0;0;4;1160;1191;1250;1229;436;553;406;439;520;462;5;359;593;8,5625;4,6875;0;0;0;6;6,625;11,875;78,625;2,375;81,75;1454;317;0,9375;100;-46;7
3360;0;0;0;0;12;47;43;0;0;0;0;0;0;0;0;0;0;0;5;0;0;0;2;58;18,4375;245;5,625;14,25;3,875;1820;10,25;3;22,125;0;0;-45,5625;902,625;-1092,75;536;1;1;0;0;0;0;4;1165;1188;1248;1226;433;548;403;437;517;461;5;358;585;8,5625;4,6875;0;0;0;6;5,5;21,375;96;3,375;78,5;1457;-163;1;100;-46;7
3366;0;0;0;0;12;47;48;0;0;0;0;0;0;0;0;0;0;0;5;0;0;0;2;59;19,3125;234;5,625;14,25;4,3125;1849;10,5;3;22,125;0;0;-45,5;903,5625;-1081,1875;534;1;1;0;0;0;0;4;1171;1201;1256;1236;429;544;401;435;516;460;5;355;577;8,5625;4,6875;0;0;0;6;6;13,75;115,375;2,75;77,5;1417;-579;1,0625;100;-46;7
3372;0;0;0;0;12;47;53;0;0;0;0;0;0;0;0;0;0;0;5;0;0;0;2;60;18,6875;231;5,625;14,25;5,9375;1883;10,75;3;22,125;0;0;-45,75;904,25;-1064,875;532;1;1;0;0;0;0;4;1178;1210;1262;1245;427;540;399;434;515;460;5;354;570;8,5625;4,6875;0;0;0;6;4,75;9,5;129,75;2,25;80;1374;-545;1,0625;100;-46;7
3378;0;0;0;0;12;47;58;0;0;0;0;0;0;0;0;0;0;0;5;0;0;0;2;60;18,5;237;5,625;14,3125;5,4375;1894;10,75;3;22,0625;0;0;-45,6875;904,9375;-1072,5625;529;1;1;0;0;0;0;4;1183;1220;1272;1252;424;536;398;432;513;460;5;352;562;8,5625;4,6875;0;0;0;6;9;-0,875;124,125;-1,25;82,75;1321;-663;1,3125;100;-46;7
3384;0;0;0;0;12;48;3;0;0;0;0;0;0;0;0;0;0;0;5;0;0;0;2;54;12,75;245;5,625;14,1875;4,8125;1426;8,3125;3;22,0625;0;0;-45,5625;903,0625;-1099,75;527;1;1;0;0;0;0;4;1139;1182;1237;1221;421;532;395;428;509;459;5;350;554;8,5625;4,6875;0;0;0;6;9,125;1,125;126,5;0,125;94,5;1374;1291;0,75;100;-46;7
3390;0;0;0;0;12;48;8;0;0;0;0;0;0;0;0;0;0;0;5;0;0;0;2;52;12,5625;229;5,625;14,25;4,4375;1375;7,375;3;22,0625;0;0;-45,625;903,3125;-1115,5;525;1;1;0;0;0;0;4;1107;1151;1200;1191;418;528;389;421;504;454;5;348;547;8,5625;4,6875;0;0;0;6;-2;12,125;133,5;2,125;89,25;1445;241;0,8125;100;-46;7
3396;0;0;0;0;12;48;13;0;0;0;0;0;0;0;0;0;0;0;5;0;0;0;2;53;12,625;228;5,625;14,25;2,75;1374;7,125;3;22,0625;0;0;-45,4375;901,875;-1110,1875;523;1;1;0;0;0;0;4;1087;1132;1177;1174;416;524;385;415;497;451;5;347;540;8,5625;4,6875;0;0;0;6;3,875;-1,125;141,875;1,625;84,25;1408;254;0,8125;100;-45;7
3402;0;0;0;0;12;48;18;0;0;0;0;0;0;0;0;0;0;0;5;0;0;0;2;52;12,5625;224;5,625;14,25;3,6875;1353;7,0625;3;22,0625;0;0;-45,1875;901,25;-1127,625;521;1;1;0;0;0;0;4;1074;1119;1161;1160;413;520;380;410;492;447;5;344;533;8,5625;4,6875;0;0;0;6;9,125;-0,625;136;-1,75;77;1374;-362;1;100;-45;7
3408;0;0;0;0;12;48;23;0;0;0;0;0;0;0;0;0;0;0;5;0;0;0;2;54;15,6875;229;5,625;14,25;5,75;1580;8,25;3;22,0625;0;0;-45,625;904;-1120;519;1;1;0;0;0;0;4;1084;1124;1164;1160;411;516;377;406;487;444;5;343;525;8,5625;4,6875;0;0;0;6;3;6,875;140;1,25;75,75;1378;235;0,8125;100;-46;7
3414;0;0;0;0;12;48;28;0;0;0;0;0;0;0;0;0;0;0;5;0;0;0;2;55;15,625;229;5,625;14,25;5,5;1614;8,875;3;22;0;0;-45,1875;901;-1114,375;517;1;1;0;0;0;0;4;1110;1147;1190;1181;408;513;375;404;485;443;5;341;518;8,5625;4,6875;0;0;0;6;11;4,375;149,875;1,125;67,25;1297;-1331;1,375;100;-45;7
3420;0;0;0;0;12;48;33;0;0;0;0;0;0;0;0;0;0;0;5;0;0;0;2;59;19,8125;236;5,625;14,25;3,75;1901;10,0625;3;22;0;0;-45,3125;902,3125;-1096;515;1;1;0;0;0;0;4;1134;1165;1217;1198;405;509;373;402;483;443;5;340;512;8,5625;4,6875;0;0;0;6;10,25;-0,375;145,875;-0,125;76;1343;668;1;100;-45;7
3426;0;0;0;0;12;48;38;0;0;0;0;0;0;0;0;0;0;0;5;0;0;0;2;61;24,0625;243;5,625;14,3125;6,1875;1914;11,4375;3;22;0;0;-45,25;901,375;-1114,125;513;1;1;0;0;0;0;4;1164;1196;1242;1222;403;505;373;402;483;443;5;338;505;8,5625;4,6875;0;0;0;6;6,25;4,25;149,875;1,75;74,5;1372;176;0,9375;100;-45;7
3432;0;0;0;0;12;48;43;0;0;0;0;0;0;0;0;0;0;0;5;0;0;0;2;62;20,0625;246;5,625;14,3125;5,375;1920;11,75;3;22;0;0;-45,3125;901,1875;-1121,5625;511;1;1;0;0;0;0;4;1183;1219;1262;1236;401;502;373;402;483;444;5;336;498;8,5625;4,6875;0;0;0;6;9,375;0,625;148,625;-0,625;74,75;1372;-1;1,0625;100;-45;7
3438;0;0;0;0;12;48;48;0;0;0;0;0;0;0;0;0;0;0;5;0;0;0;2;62;19,5;240;5,625;14,25;5,6875;1909;11,9375;3;21,9375;0;0;-45,5625;902,6875;-1107,3125;509;1;1;0;0;0;0;4;1195;1228;1268;1243;398;498;373;403;484;446;5;335;492;8,5625;4,6875;0;0;0;6;8;3,25;150,75;0,5;76,75;1381;122;1;100;-46;7
3444;0;0;0;0;12;48;53;0;0;0;0;0;0;0;0;0;0;0;5;0;0;0;2;62;20;236;5,625;14,25;5,8125;1922;11,875;3;21,9375;0;0;-45,5625;902,9375;-1104,75;507;1;1;0;0;0;0;4;1199;1234;1274;1251;396;494;374;404;486;448;5;333;485;8,5625;4,6875;0;0;0;6;5,125;4,125;148,75;0,625;79,75;1386;-76;0,9375;100;-46;7
3450;0;0;0;0;12;48;58;0;0;0;0;0;0;0;0;0;0;0;5;0;0;0;2;62;20;240;5,625;14,25;3;1939;11,75;3;21,9375;0;0;-45,625;903,25;-1110,6875;506;1;1;0;0;0;0;4;1207;1244;1284;1256;394;491;375;405;487;449;5;332;479;8,5625;4,6875;0;0;0;6;5,125;4,25;151,5;-0,375;82,25;1376;-174;0,9375;100;-46;7
3456;0;0;0;0;12;49;3;0;0;0;0;0;0;0;0;0;0;0;5;0;0;0;2;62;19,875;247;5,625;14,3125;6,625;1938;11,6875;3;21,9375;0;0;-45,75;904,25;-1113,75;504;1;1;0;0;0;0;4;1210;1253;1290;1262;391;488;376;406;488;451;5;330;472;8,5625;4,6875;0;0;0;6;6,125;-2,5;150,125;-0,5;86;1356;-67;1,0625;100;-46;7
3462;0;0;0;0;12;49;8;0;0;0;0;0;0;0;0;0;0;0;5;0;0;0;2;62;19,9375;250;5,625;14,25;5,4375;1945;11,6875;3;21,875;0;0;-45,4375;903,0625;-1116,3125;502;1;1;0;0;0;0;4;1213;1256;1293;1265;389;485;376;407;489;452;5;328;467;8,5625;4,6875;0;0;0;6;3,5;-3,5;136,375;-1,5;92,25;1373;435;0,8125;100;-45;7
3468;0;0;0;0;12;49;13;0;0;0;0;0;0;0;0;0;0;0;5;0;0;0;2;62;19,625;243;5,625;14,25;5,6875;1949;11,75;3;21,875;0;0;-45,6875;904,8125;-1116,5625;500;1;1;0;0;0;0;4;1215;1257;1295;1268;387;481;376;408;489;453;5;327;460;8,5625;4,6875;0;0;0;6;3,75;4,625;137,125;1,125;92,75;1379;4;1;100;-46;7
3474;0;0;0;0;12;49;18;0;0;0;0;0;0;0;0;0;0;0;5;0;0;0;2;62;19,9375;240;5,625;14,25;6,0625;1962;11,8125;3;21,875;0;0;-45,6875;904,75;-1116,625;499;1;1;0;0;0;0;4;1214;1257;1295;1272;384;478;377;408;490;454;5;325;454;8,5625;4,6875;0;0;0;6;3,75;1;139;-1,625;93,25;1367;-340;1,0625;100;-46;7
3480;0;0;0;0;12;49;23;0;0;0;0;0;0;0;0;0;0;0;5;0;0;0;2;62;20;250;5,625;14,25;6,75;1965;11,8125;3;21,875;0;0;-45,4375;902,1875;-1119,75;497;1;1;0;0;0;0;4;1217;1258;1296;1275;382;475;377;408;491;456;5;324;449;8,5625;4,6875;0;0;0;6;3,875;-0,125;134,5;-0,875;95,25;1359;-81;1,0625;100;-45;7
3486;0;0;0;0;12;49;28;0;0;0;0;0;0;0;0;0;0;0;5;0;0;0;2;60;17,875;234;5,625;14,25;4,4375;1816;10,4375;3;21,8125;0;0;-45,3125;901,8125;-1135,875;495;1;1;0;0;0;0;4;1206;1248;1296;1272;380;472;377;409;491;456;5;322;443;8,5625;4,6875;0;0;0;6;4,125;8,125;136,25;0,625;97;1358;44;1;100;-45;7
3492;0;0;0;0;12;49;33;0;0;0;0;0;0;0;0;0;0;0;5;0;0;0;2;59;16,1875;238;5,625;14,25;5,25;1729;9,5;3;21,8125;0;0;-45,375;901,375;-1148,3125;493;1;1;0;0;0;0;4;1202;1240;1295;1269;378;469;377;409;491;456;5;321;437;8,5625;4,6875;0;0;0;6;4,25;13,625;151,75;1,125;95,75;1358;-96;1;100;-45;7
3498;0;0;0;0;12;49;38;0;0;0;0;0;0;0;0;0;0;0;5;0;0;0;2;57;13,5625;248;5,625;14,25;3,875;1568;9,5625;3;21,8125;0;0;-45,6875;903,6875;-1162,9375;492;1;1;0;0;0;0;4;1182;1219;1279;1257;376;465;376;408;490;456;5;320;432;8,5625;4,6875;0;0;0;6;5,5;9,5;167,375;2;92,75;1341;-205;1,0625;100;-46;7
3504;0;0;0;0;12;49;43;0;0;0;0;0;0;0;0;0;0;0;5;0;0;0;2;55;13,8125;230;5,625;14,25;4,4375;1524;8,625;3;21,8125;0;0;-45,5625;905;-1149,4375;490;1;1;0;0;0;0;4;1162;1201;1255;1242;374;462;373;405;487;455;5;318;426;8,5625;4,6875;0;0;0;6;3,75;5,375;166;-0,625;92;1336;201;0,875;100;-46;7
3510;0;0;0;0;12;49;48;0;0;0;0;0;0;0;0;0;0;0;5;0;0;0;2;54;14,125;233;5,625;14,25;5,875;1514;8,4375;3;21,8125;0;0;-45,5625;903,75;-1140,875;489;1;1;0;0;0;0;4;1149;1188;1235;1229;372;459;371;401;483;453;5;317;421;8,5625;4,6875;0;0;0;6;7,875;4,125;171,125;2;86,25;1336;-68;1,125;100;-46;7
