Label;boot;user;type;zulu is gps;zulu hour;zulu min;zulu sec;date valid;zulu day;zulu mo;zulu year;nav port;sel course;cdi;vor from;vor to;gsi;brg 1 port;brg 2 port;brg 1;brg 2;dtw/dme;type.1;oil pres;man pres;oil temp;fuel pres;volts;amps;rpm;fuel flow;type.2;gals rem;fuel lvl 1;fuel lvl 2;ems gp 1;ems gp 2;ems gp 3;gp t-couple;contact 1;contact 2;contact 3;contact 4;contact 5;contact 6;type.3;egt 1;egt 2;egt 3;egt 4;egt 5;egt 6;cht 1;cht 2;cht 3;cht 4;type.4;cht 5;cht 6;hobbs;tach;hs34 gp 1;hs34 gp 2;hs34 gp 3;type.5;pitch;roll;heading;turn rate;airspeed;altitude;vert spd;gz;aoa %;oat;type.6
4052;1;0;0;0;12;57;35;0;0;0;0;0;0;0;0;0;0;0;5;0;0;0;2;-3;30,4375;233;4,625;0;-2;0;0;3;21,1875;0;0;-45,3125;903,6875;1864,1875;302;1;1;0;0;0;0;4;518;554;515;572;289;274;399;401;447;445;5;240;1418;8,6875;4,6875;0;0;0;6;-0,625;-0,375;48,25;-0,25;23;381;93;1;100;-45;7
4059;0;0;0;0;12;57;36;0;0;0;0;0;0;0;0;0;0;0;5;0;0;0;2;-2;30,4375;233;5,3125;0;-4,375;0;0;3;21,1875;0;0;-45,5625;902,75;1861,8125;303;1;1;0;0;0;0;4;516;552;514;571;289;274;399;401;447;445;5;265;1418;8,6875;4,6875;0;0;0;6;-0,5;-0,625;48;-0,125;23;383;76;1;100;-46;7
4065;0;0;0;0;12;57;41;0;0;0;0;0;0;0;0;0;0;0;5;0;0;0;2;0;30,4375;233;5,625;0;-7,6875;0;0;3;21,1875;0;0;-45,375;902,25;1844,5625;310;1;1;0;0;0;0;4;507;543;505;561;288;274;399;401;447;445;5;385;1418;8,6875;4,6875;0;0;0;6;-0,75;-0,875;47,625;-0,125;23;390;90;1;100;-45;7
4072;0;0;0;0;12;57;43;0;0;0;0;0;0;0;0;0;0;0;5;0;0;0;2;0;30,4375;233;5,625;0;0,1875;0;0;3;21,1875;0;0;-45,4375;902,8125;1838,625;312;1;1;0;0;0;0;4;503;539;501;557;288;275;399;401;447;445;5;428;1417;8,6875;4,6875;0;0;0;6;-0,5;-0,875;47,625;-0,125;22,75;392;43;1;100;-45;7
4078;0;0;0;0;12;57;48;0;0;0;0;0;0;0;0;0;0;0;5;0;0;0;2;0;30,4375;233;5,625;0;3,0625;0;0;3;21,1875;0;0;-45,375;903,6875;1821,4375;317;1;1;0;0;0;0;4;494;530;493;548;288;275;399;401;446;444;5;526;1417;8,6875;4,6875;0;0;0;6;-0,125;-0,75;47,625;-0,125;23,25;392;15;1;100;-45;7
4084;0;0;0;0;12;57;53;0;0;0;0;0;0;0;0;0;0;0;5;0;0;0;2;0;30,4375;233;5,625;0;-0,75;0;0;3;21,1875;0;0;-45,6875;903,875;1805,9375;321;1;1;0;0;0;0;4;486;521;485;539;289;276;399;401;445;444;5;614;1417;8,6875;4,6875;0;0;0;6;-0,75;-0,75;47,625;-0,25;23,25;392;23;1;100;-46;7
4090;0;0;0;0;12;57;58;0;0;0;0;0;0;0;0;0;0;0;5;0;0;0;2;0;30,4375;232;5,625;0;-0,125;0;0;3;21,1875;0;0;-45,375;903,6875;1790,875;324;1;1;0;0;0;0;4;478;513;477;531;292;277;398;400;444;443;5;694;1416;8,6875;4,6875;0;0;0;6;-0,625;-0,625;47,625;-0,125;23,25;392;-3;1;100;-45;7
4096;0;0;0;0;12;58;3;0;0;0;0;0;0;0;0;0;0;0;5;0;0;0;2;0;30,4375;232;5,625;0;-0,5625;0;0;3;21,1875;0;0;-45,375;902,4375;1777,4375;327;1;1;0;0;0;0;4;470;505;470;522;297;278;398;400;443;442;5;765;1416;8,6875;4,6875;0;0;0;6;-0,625;-0,75;47,625;-0,125;23,25;392;-17;1;100;-45;7
4103;0;0;0;0;12;58;8;0;0;0;0;0;0;0;0;0;0;0;5;0;0;0;2;0;30,4375;232;5,625;0;1,9375;0;0;3;21,1875;0;0;-45,375;903,5625;1762,75;330;1;1;0;0;0;0;4;462;497;463;514;302;278;397;399;443;441;5;832;1416;8,6875;4,6875;0;0;0;6;-0,5;-0,75;47,625;-0,125;23,25;392;-22;1;100;-45;7
4109;0;0;0;0;12;58;13;0;0;0;0;0;0;0;0;0;0;0;5;0;0;0;2;0;30,4375;232;5,625;0;0,5;0;0;3;21,1875;0;0;-45,5;902,8125;1750,6875;332;1;1;0;0;0;0;4;455;490;457;506;310;278;397;399;442;441;5;891;1416;8,6875;4,6875;0;0;0;6;-0,375;-0,875;47,625;-0,125;22,5;392;-15;1;100;-45;7
4116;0;0;0;0;12;58;17;0;0;0;0;0;0;0;0;0;0;0;5;0;0;0;2;0;30,4375;232;5,625;0;-4,25;0;0;3;21,1875;0;0;-45,375;901,625;1740,5625;334;1;1;0;0;0;0;4;449;484;451;501;316;279;396;398;441;440;5;935;1416;8,6875;4,6875;0;0;0;6;-0,5;-1;47,75;-0,125;23;392;-6;1;100;-45;7
4123;0;0;0;0;12;58;22;0;0;0;0;0;0;0;0;0;0;0;5;0;0;0;2;0;30,4375;231;5,625;0;-2,875;0;0;3;21,1875;0;0;-45,5625;903,875;1728,6875;337;1;1;0;0;0;0;4;443;477;445;493;324;279;396;398;441;440;5;984;1416;8,6875;4,6875;0;0;0;6;-0,625;-0,875;47,625;-0,25;23,25;392;-17;1;100;-46;7
4130;0;0;0;0;12;58;24;0;0;0;0;0;0;0;0;0;0;0;5;0;0;0;2;0;30,4375;231;5,625;0;-2,9375;0;0;3;21,1875;0;0;-45,5;902,5625;1723,75;338;1;1;0;0;0;0;4;440;474;442;490;327;279;396;398;440;439;5;1002;1416;8,6875;4,6875;0;0;0;6;-0,75;-0,875;47,75;-0,125;23,5;392;-33;1;100;-46;7
4137;0;0;0;0;12;58;29;0;0;0;0;0;0;0;0;0;0;0;5;0;0;0;2;0;30,4375;231;5,625;0;-1,875;0;0;3;21,1875;0;0;-45,8125;904,5625;1710,875;340;1;1;0;0;0;0;4;433;468;436;484;337;280;395;397;440;439;5;1045;1416;8,6875;4,6875;0;0;0;6;-0,5;-1,125;47,75;-0,125;23,25;392;-1;1;100;-46;7
4144;0;0;0;0;12;58;31;0;0;0;0;0;0;0;0;0;0;0;5;0;0;0;2;0;30,4375;231;5,625;0;-4,75;0;0;3;21,1875;0;0;-45,5;903,4375;1705,3125;341;1;1;0;0;0;0;4;431;465;434;481;341;280;395;397;439;438;5;1060;1416;8,6875;4,6875;0;0;0;6;-0,5;-1;47,625;-0,125;23,25;392;-26;1;100;-45;7
4150;0;0;0;0;12;58;36;0;0;0;0;0;0;0;0;0;0;0;5;0;0;0;2;0;30,4375;231;5,625;0;-3,6875;0;0;3;21,1875;0;0;-45,5;902,25;1694,375;343;1;1;0;0;0;0;4;425;458;428;474;350;281;394;396;438;437;5;1096;1416;8,6875;4,6875;0;0;0;6;-0,5;-1;47,75;-0,125;23;392;-11;1;100;-45;7
4156;0;0;0;0;12;58;41;0;0;0;0;0;0;0;0;0;0;0;5;0;0;0;2;0;30,4375;231;5,625;0;-3,5625;0;0;3;21,1875;0;0;-45,375;902,625;1684,75;345;1;1;0;0;0;0;4;419;452;422;468;360;281;394;396;438;437;5;1128;1416;8,6875;4,6875;0;0;0;6;-0,25;-0,875;47,625;-0,125;22,5;392;14;1;100;-45;7
4163;0;0;0;0;12;58;42;0;0;0;0;0;0;0;0;0;0;0;5;0;0;0;2;0;30,4375;230;5,625;0;-2,875;0;0;3;21,1875;0;0;-45,5625;904,1875;1682,375;346;1;1;0;0;0;0;4;417;450;421;467;362;281;394;396;437;436;5;1134;1416;8,6875;4,6875;0;0;0;6;-0,625;-1;47,75;-0,125;22,75;392;-6;1;100;-46;7
4170;0;0;0;0;12;58;46;0;0;0;0;0;0;0;0;0;0;0;5;0;0;0;2;0;30,4375;230;5,625;0;-3,875;0;0;3;21,1875;0;0;-45,5625;904,125;1673,8125;347;1;1;0;0;0;0;4;413;445;417;462;370;282;393;395;437;436;5;1156;1416;8,6875;4,6875;0;0;0;6;-0,75;-0,875;47,625;-0,125;23,25;392;-14;1;100;-46;7
4177;0;0;0;0;12;58;51;0;0;0;0;0;0;0;0;0;0;0;5;0;0;0;2;0;30,4375;230;5,625;0;-0,6875;0;0;3;21,1875;0;0;-45,4375;902,75;1662,75;349;1;1;0;0;0;0;4;407;440;411;456;380;283;393;395;436;435;5;1181;1416;8,6875;4,6875;0;0;0;6;-0,375;-1;47,625;-0,125;23;392;-4;1;100;-45;7
4184;0;0;0;0;12;58;55;0;0;0;0;0;0;0;0;0;0;0;5;0;0;0;2;0;30,4375;230;5,625;0;-3,625;0;0;3;21,1875;0;0;-45,8125;904,375;1655,875;350;1;1;0;0;0;0;4;403;434;407;451;388;283;393;394;435;435;5;1198;1416;8,6875;4,6875;0;0;0;6;-0,5;-1;47,625;-0,125;22,5;392;0;1;100;-46;7
4190;0;0;0;0;12;59;0;0;0;0;0;0;0;0;0;0;0;0;5;0;0;0;2;0;30,4375;230;5,625;0;-3,75;0;0;3;21,1875;0;0;-45,4375;902,1875;1644,3125;352;1;1;0;0;0;0;4;397;429;402;445;398;284;392;394;435;434;5;1217;1416;8,6875;4,6875;0;0;0;6;-0,25;-0,875;47,625;-0,125;22,5;392;3;1;100;-45;7
4196;0;0;0;0;12;59;5;0;0;0;0;0;0;0;0;0;0;0;5;0;0;0;2;0;30,4375;230;5,625;0;-3,5625;0;0;3;21,1875;0;0;-45,6875;904,5625;1635,125;353;1;1;0;0;0;0;4;392;423;396;440;408;285;391;393;434;433;5;1234;1416;8,6875;4,6875;0;0;0;6;-0,625;-0,875;47,75;-0,125;22,75;392;-4;1;100;-46;7
4203;0;0;0;0;12;59;7;0;0;0;0;0;0;0;0;0;0;0;5;0;0;0;2;0;30,4375;230;5,625;0;-1,6875;0;0;3;21,1875;0;0;-45,3125;902,125;1630,8125;354;1;1;0;0;0;0;4;390;421;394;437;413;285;391;393;434;433;5;1240;1416;8,6875;4,6875;0;0;0;6;-0,375;-0,875;47,75;-0,125;22,75;392;4;1;100;-45;7
4210;0;0;0;0;12;59;9;0;0;0;0;0;0;0;0;0;0;0;5;0;0;0;2;0;30,4375;230;5,625;0;-3,25;0;0;3;21,1875;0;0;-45,75;904,375;1629;355;1;1;0;0;0;0;4;388;419;392;435;417;286;391;393;433;433;5;1245;1416;8,6875;4,6875;0;0;0;6;-0,375;-0,875;47,75;-0,125;22,75;392;8;1;100;-46;7
4217;0;0;0;0;12;59;14;0;0;0;0;0;0;0;0;0;0;0;5;0;0;0;2;0;30,4375;229;5,625;0;0,125;0;0;3;21,1875;0;0;-45,5625;903,9375;1618,8125;356;1;1;0;0;0;0;4;383;413;387;430;426;287;390;392;433;432;5;1258;1416;8,6875;4,6875;0;0;0;6;-0,375;-0,875;47,75;-0,125;22,75;392;10;1;100;-46;7
4223;0;0;0;0;12;59;19;0;0;0;0;0;0;0;0;0;0;0;5;0;0;0;2;0;30,4375;229;5,625;0;-0,625;0;0;3;21,1875;0;0;-45,4375;903,25;1610,0625;357;1;1;0;0;0;0;4;378;408;382;424;436;288;390;392;432;431;5;1268;1416;8,6875;4,6875;0;0;0;6;-0,5;-0,875;47,625;-0,125;22,75;392;10;1;100;-45;7
4229;0;0;0;0;12;59;24;0;0;0;0;0;0;0;0;0;0;0;5;0;0;0;2;0;30,4375;229;5,625;0;-2,75;0;0;3;21,1875;0;0;-45,5;903,6875;1600,4375;359;1;1;0;0;0;0;4;373;404;378;419;445;289;390;391;431;430;5;1277;1416;8,6875;4,6875;0;0;0;6;-0,25;-0,75;47,75;-0,125;22,5;392;0;1;100;-46;7
4235;0;0;0;0;12;59;29;0;0;0;0;0;0;0;0;0;0;0;5;0;0;0;2;0;30,4375;228;5,625;0;2,5;0;0;3;21,1875;0;0;-45,5625;903,875;1591,9375;360;1;1;0;0;0;0;4;369;398;373;414;455;290;389;391;430;430;5;1285;1416;8,6875;4,6875;0;0;0;6;-0,25;-0,75;47,875;-0,125;22,5;392;-11;1;100;-46;7
4242;0;0;0;0;12;59;33;0;0;0;0;0;0;0;0;0;0;0;5;0;0;0;2;0;30,4375;228;5,625;0;-3,6875;0;0;3;21,1875;0;0;-45,3125;903,25;1585,625;361;1;1;0;0;0;0;4;365;395;370;411;462;291;388;390;430;429;5;1290;1416;8,6875;4,6875;0;0;0;6;-0,625;-1;47,875;-0,125;22,5;392;19;1;100;-45;7
4248;0;0;0;0;12;59;38;0;0;0;0;0;0;0;0;0;0;0;5;0;0;0;2;0;30,4375;228;5,625;0;-3,5625;0;0;3;21,1875;0;0;-45,5625;902,625;1576,0625;362;1;1;0;0;0;0;4;361;390;366;406;471;292;388;390;429;428;5;1295;1416;8,6875;4,6875;0;0;0;6;-0,5;-1;47,75;-0,125;22;392;-9;1;100;-46;7
4255;0;0;0;0;12;59;39;0;0;0;0;0;0;0;0;0;0;0;5;0;0;0;2;0;30,4375;228;5,625;0;-0,5;0;0;3;21,1875;0;0;-45,5;902,4375;1574,75;363;1;1;0;0;0;0;4;360;389;365;405;472;292;388;389;429;428;5;1295;1416;8,6875;4,6875;0;0;0;6;-0,375;-1;47,75;-0,125;22;392;-6;1;100;-45;7
4261;0;0;0;0;12;59;44;0;0;0;0;0;0;0;0;0;0;0;5;0;0;0;2;0;30,4375;228;5,625;0;1,875;0;0;3;21,1875;0;0;-45,75;905,5625;1565,4375;364;1;1;0;0;0;0;4;356;384;360;400;481;294;387;389;428;428;5;1299;1416;8,6875;4,6875;0;0;0;6;-0,25;-1,375;47,875;-0,125;22,25;392;-18;1;100;-46;7
4267;0;0;0;0;12;59;49;0;0;0;0;0;0;0;0;0;0;0;5;0;0;0;2;0;30,4375;228;5,625;0;0,75;0;0;3;21,1875;0;0;-45,75;905,5625;1558,125;365;1;1;0;0;0;0;4;352;380;356;396;489;295;387;388;428;427;5;1301;1416;8,6875;4,6875;0;0;0;6;0;-1,125;48;-0,25;21,75;392;21;1;100;-46;7
4273;0;0;0;0;12;59;54;0;0;0;0;0;0;0;0;0;0;0;5;0;0;0;2;0;30,4375;228;5,625;0;-0,6875;0;0;3;21,1875;0;0;-45,6875;905,1875;1548,625;366;1;1;0;0;0;0;4;348;376;352;391;497;296;386;388;427;426;5;1303;1416;8,6875;4,6875;0;0;0;6;-0,125;-1,125;48;-0,125;22;392;12;1;100;-46;7
4280;0;0;0;0;12;59;59;0;0;0;0;0;0;0;0;0;0;0;5;0;0;0;2;0;30,4375;228;5,625;0;-4,0625;0;0;3;21,1875;0;0;-45,4375;902,125;1541,6875;367;1;1;0;0;0;0;4;344;372;348;387;505;297;385;387;426;425;5;1303;1416;8,6875;4,6875;0;0;0;6;-0,25;-1,125;48,125;-0,125;22,25;392;-2;1;100;-45;7
4286;0;0;0;0;13;0;4;0;0;0;0;0;0;0;0;0;0;0;5;0;0;0;2;0;30,4375;227;5,625;0;-3,5625;0;0;3;21,1875;0;0;-45,375;903,625;1533,25;369;1;1;0;0;0;0;4;341;368;345;383;512;299;385;387;425;425;5;1303;1416;8,6875;4,6875;0;0;0;6;0,125;-1;48;-0,125;21,5;392;23;1;100;-45;7
4293;0;0;0;0;13;0;9;0;0;0;0;0;0;0;0;0;0;0;5;0;0;0;2;0;30,4375;227;5,625;0;1,9375;0;0;3;21,1875;0;0;-45,8125;904,625;1526,4375;370;1;1;0;0;0;0;4;337;364;341;379;519;300;384;386;425;424;5;1303;1416;8,6875;4,6875;0;0;0;6;0;-1,125;48;-0,125;22,25;392;8;1;100;-46;7
4300;0;0;0;0;13;0;12;0;0;0;0;0;0;0;0;0;0;0;5;0;0;0;2;0;30,4375;227;5,625;0;-5,125;0;0;3;21,1875;0;0;-45,5625;903,875;1522,3125;370;1;1;0;0;0;0;4;335;362;338;376;523;301;384;386;424;424;5;1303;1416;8,6875;4,6875;0;0;0;6;0,125;-1,125;47,875;-0,125;21,5;392;11;1;100;-46;7
4307;0;0;0;0;13;0;17;0;0;0;0;0;0;0;0;0;0;0;5;0;0;0;2;0;30,4375;227;5,625;0;-0,5;0;0;3;21,1875;0;0;-45,4375;902,0625;1514,8125;371;1;1;0;0;0;0;4;331;358;334;372;530;303;383;385;423;423;5;1302;1416;8,6875;4,6875;0;0;0;6;0,25;-1,125;48,125;-0,125;21,5;392;24;1;100;-45;7
4314;0;0;0;0;13;0;19;0;0;0;0;0;0;0;0;0;0;0;5;0;0;0;2;0;30,4375;227;5,625;0;-4,125;0;0;3;21,1875;0;0;-45,6875;904,6875;1513,0625;372;1;1;0;0;0;0;4;329;357;333;371;533;303;383;385;423;422;5;1301;1416;8,6875;4,6875;0;0;0;6;0,25;-1,25;48;-0,125;21,5;392;23;1;100;-46;7
4321;0;0;0;0;13;0;24;0;0;0;0;0;0;0;0;0;0;0;5;0;0;0;2;0;30,4375;227;5,625;0;-1,5;0;0;3;21,1875;0;0;-45,5;902,5;1505,1875;373;1;1;0;0;0;0;4;326;353;328;367;539;304;382;384;422;422;5;1298;1416;8,6875;4,6875;0;0;0;6;0,125;-1,125;48;-0,125;21,75;392;22;1;100;-46;7
4327;0;0;0;0;13;0;29;0;0;0;0;0;0;0;0;0;0;0;5;0;0;0;2;0;30,4375;227;5,625;0;0,625;0;0;3;21,1875;0;0;-45,5;902,25;1497,8125;374;1;1;0;0;0;0;4;322;350;324;364;545;306;381;383;421;421;5;1294;1416;8,6875;4,6875;0;0;0;6;-0,25;-1;48,375;0;22;392;-23;1;100;-45;7
4333;0;0;0;0;13;0;34;0;0;0;0;0;0;0;0;0;0;0;5;0;0;0;2;0;30,4375;227;5,625;0;1,375;0;0;3;21,1875;0;0;-45,375;902,4375;1490,5;375;1;1;0;0;0;0;4;319;347;320;360;550;308;380;383;420;420;5;1290;1416;8,6875;4,6875;0;0;0;6;-0,125;-1,125;48,5;-0,125;21,75;392;3;1;100;-45;7
4340;0;0;0;0;13;0;36;0;0;0;0;0;0;0;0;0;0;0;5;0;0;0;2;0;30,4375;227;5,625;0;-5,75;0;0;3;21,1875;0;0;-45,8125;906;1488,625;375;1;1;0;0;0;0;4;318;345;318;359;552;308;380;383;420;420;5;1289;1416;8,6875;4,6875;0;0;0;6;0;-1,125;48,375;-0,125;21,5;392;-31;1;100;-46;7
4346;0;0;0;0;13;0;41;0;0;0;0;0;0;0;0;0;0;0;5;0;0;0;2;0;30,4375;227;5,625;0;-4;0;0;3;21,1875;0;0;-45,8125;904,875;1481,3125;376;1;1;0;0;0;0;4;314;342;314;355;558;310;379;382;419;419;5;1284;1416;8,6875;4,6875;0;0;0;6;0,25;-1,125;48,375;-0,125;21,25;392;-21;1;100;-46;7
4353;0;0;0;0;13;0;42;0;0;0;0;0;0;0;0;0;0;0;5;0;0;0;2;0;30,4375;227;5,625;0;-2,875;0;0;3;21,1875;0;0;-45,5625;902,8125;1479,625;376;1;1;0;0;0;0;4;314;341;313;355;559;310;379;382;419;419;5;1283;1416;8,6875;4,6875;0;0;0;6;0,25;-1,25;48,375;-0,125;20,5;392;-7;1;100;-46;7
4360;0;0;0;0;13;0;44;0;0;0;0;0;0;0;0;0;0;0;5;0;0;0;2;0;30,4375;227;5,625;0;-3,9375;0;0;3;21,1875;0;0;-45,5625;903,875;1477,125;377;1;1;0;0;0;0;4;312;340;312;353;560;311;379;381;419;419;5;1280;1416;8,6875;4,6875;0;0;0;6;-0,25;-1,25;48,375;-0,125;21,5;392;-33;1;100;-46;7
4367;0;0;0;0;13;0;49;0;0;0;0;0;0;0;0;0;0;0;5;0;0;0;2;0;30,4375;227;5,625;0;-2,6875;0;0;3;21,1875;0;0;-45,5625;902,625;1469,8125;378;1;1;0;0;0;0;4;309;337;308;350;566;312;378;381;418;418;5;1275;1416;8,6875;4,6875;0;0;0;6;0,375;-1,125;48,375;-0,125;20,75;392;9;1;100;-46;7
4374;0;0;0;0;13;0;50;0;0;0;0;0;0;0;0;0;0;0;5;0;0;0;2;0;30,4375;227;5,625;0;-3,625;0;0;3;21,1875;0;0;-45,75;904,9375;1469,125;378;1;1;0;0;0;0;4;309;336;307;350;567;313;378;381;418;418;5;1273;1416;8,6875;4,6875;0;0;0;6;0,25;-1,25;48,25;-0,25;20,5;392;26;1;100;-46;7
4381;0;0;0;0;13;0;55;0;0;0;0;0;0;0;0;0;0;0;5;0;0;0;2;0;30,4375;227;5,625;0;-1,1875;0;0;3;21,1875;0;0;-45,375;903,625;1461,1875;379;1;1;0;0;0;0;4;305;333;304;346;571;314;377;380;417;417;5;1267;1416;8,6875;4,6875;0;0;0;6;0,125;-1,125;48,5;0;20,5;392;13;1;100;-45;7
4387;0;0;0;0;13;1;0;0;0;0;0;0;0;0;0;0;0;0;5;0;0;0;2;0;30,4375;226;5,625;0;-0,6875;0;0;3;21,1875;0;0;-45,5625;904;1454;380;1;1;0;0;0;0;4;302;330;300;343;575;316;377;380;416;417;5;1261;1416;8,6875;4,6875;0;0;0;6;0,25;-1,375;48,375;-0,125;19,75;392;-4;1;100;-46;7
4394;0;0;0;0;13;1;3;0;0;0;0;0;0;0;0;0;0;0;5;0;0;0;2;0;30,4375;226;5,625;0;-4;0;0;3;21,1875;0;0;-45,5;902,5625;1450,25;380;1;1;0;0;0;0;4;301;328;298;341;578;317;376;379;416;416;5;1257;1416;8,6875;4,6875;0;0;0;6;-0,125;-1,25;48,5;-0,125;20,25;392;-17;1;100;-46;7
4400;0;0;0;0;13;1;8;0;0;0;0;0;0;0;0;0;0;0;5;0;0;0;2;0;30,4375;226;5,625;0;-3,375;0;0;3;21,1875;0;0;-45,5;902,1875;1442,8125;381;1;1;0;0;0;0;4;298;325;295;338;581;318;376;379;415;416;5;1249;1416;8,6875;4,6875;0;0;0;6;-0,25;-1,25;48,375;-0,125;20,25;392;-1;1;100;-45;7
4407;0;0;0;0;13;1;13;0;0;0;0;0;0;0;0;0;0;0;5;0;0;0;2;0;30,4375;226;5,625;0;-2,6875;0;0;3;21,1875;0;0;-45,4375;903,25;1435,4375;382;1;1;0;0;0;0;4;295;323;292;335;585;320;375;378;414;415;5;1241;1416;8,6875;4,6875;0;0;0;6;0,25;-1,125;48,5;-0,125;20;392;-28;1;100;-45;7
4413;0;0;0;0;13;1;18;0;0;0;0;0;0;0;0;0;0;0;5;0;0;0;2;0;30,4375;226;5,625;0;-1,75;0;0;3;21,1875;0;0;-45,5;902,4375;1429,4375;382;1;1;0;0;0;0;4;293;320;290;332;588;321;374;378;414;415;5;1233;1416;8,6875;4,6875;0;0;0;6;0,125;-1,125;48,5;-0,125;19,75;392;19;1;100;-45;7
4420;0;0;0;0;13;1;22;0;0;0;0;0;0;0;0;0;0;0;5;0;0;0;2;0;30,4375;226;5,625;0;-3,0625;0;0;3;21,1875;0;0;-45,375;903,625;1424,5625;383;1;1;0;0;0;0;4;290;318;288;330;591;323;374;377;413;414;5;1227;1416;8,6875;4,6875;0;0;0;6;-0,25;-1,375;48,375;-0,125;20,5;392;-14;1;100;-45;7
4427;0;0;0;0;13;1;27;0;0;0;0;0;0;0;0;0;0;0;5;0;0;0;2;0;30,4375;225;5,625;0;-1,25;0;0;3;21,1875;0;0;-45,4375;902,875;1417,375;384;1;1;0;0;0;0;4;288;315;285;327;593;324;374;377;413;414;5;1218;1416;8,6875;4,6875;0;0;0;6;0,125;-1,25;48,25;-0,125;20,25;392;-5;1;100;-45;7
4433;0;0;0;0;13;1;32;0;0;0;0;0;0;0;0;0;0;0;5;0;0;0;2;0;30,4375;225;5,625;0;2,3125;0;0;3;21,1875;0;0;-45,6875;904,8125;1411,6875;385;1;1;0;0;0;0;4;286;313;283;324;596;326;373;376;412;413;5;1209;1416;8,6875;4,6875;0;0;0;6;0;-1,125;48,125;-0,375;20,75;392;-11;1;100;-46;7
4439;0;0;0;0;13;1;37;0;0;0;0;0;0;0;0;0;0;0;5;0;0;0;2;0;30,4375;225;5,625;0;-1,3125;0;0;3;21,1875;0;0;-45,5625;902,625;1405,125;385;1;1;0;0;0;0;4;283;310;281;322;598;327;373;376;411;413;5;1200;1416;8,6875;4,6875;0;0;0;6;0,75;-1,125;53,375;4,625;21,25;392;1;1;100;-46;7
4445;0;0;0;0;13;1;42;0;0;0;0;0;0;0;0;0;0;0;5;0;0;0;2;0;30,4375;225;5,625;0;-1,0625;0;0;3;21,1875;0;0;-45,4375;902,0625;1400,0625;386;1;1;0;0;0;0;4;281;307;279;319;600;329;372;375;411;412;5;1191;1416;8,6875;4,6875;0;0;0;6;-0,5;2,875;111,125;11,5;20,75;392;11;1;100;-45;7
4451;0;0;0;0;13;1;47;0;0;0;0;0;0;0;0;0;0;0;5;0;0;0;2;0;30,4375;225;5,625;0;-2;0;0;3;21,1875;0;0;-45,5;902,3125;1395,25;387;1;1;0;0;0;0;4;278;305;276;317;602;330;371;375;410;411;5;1181;1416;8,6875;4,6875;0;0;0;6;-1,125;3,75;140,625;2,375;20,5;392;-28;1;100;-45;7
4458;0;0;0;0;13;1;48;0;0;0;0;0;0;0;0;0;0;0;5;0;0;0;2;0;30,4375;225;5,625;0;-5,6875;0;0;3;21,1875;0;0;-45,375;903,875;1392,875;387;1;1;0;0;0;0;4;278;305;276;317;603;331;371;375;410;411;5;1180;1416;8,6875;4,6875;0;0;0;6;-0,25;3,75;140,875;0,875;20,25;392;-4;1;100;-45;7
4465;0;0;0;0;13;1;53;0;0;0;0;0;0;0;0;0;0;0;5;0;0;0;2;0;30,4375;225;5,625;0;2,125;0;0;3;21,1875;0;0;-45,5;902,5;1383,0625;388;1;1;0;0;0;0;4;276;302;274;314;604;332;371;374;409;411;5;1170;1416;8,6875;4,6875;0;0;0;6;0,375;2,25;137,75;-2,25;20,5;392;-32;1;100;-46;7
4471;0;0;0;0;13;1;58;0;0;0;0;0;0;0;0;0;0;0;5;0;0;0;2;0;30,4375;225;5,625;0;1,25;0;0;3;21,1875;0;0;-45,75;904,3125;1381;388;1;1;0;0;0;0;4;274;299;272;311;606;333;370;373;409;410;5;1160;1416;8,6875;4,6875;0;0;0;6;-1,75;1,75;141,25;1,125;21;392;-8;1;100;-46;7
4477;0;0;0;0;13;2;3;0;0;0;0;0;0;0;0;0;0;0;5;0;0;0;2;0;30,4375;225;5,625;0;-0,5625;0;0;3;21,1875;0;0;-45,375;903,6875;1375,75;389;1;1;0;0;0;0;4;272;297;270;309;607;335;370;373;408;409;5;1150;1416;8,6875;4,6875;0;0;0;6;-1,25;0,125;137,75;-0,125;20,75;392;3;1;100;-45;7
4483;0;0;0;0;13;2;8;0;0;0;0;0;0;0;0;0;0;0;5;0;0;0;2;0;30,4375;225;5,625;0;-1,375;0;0;3;21,1875;0;0;-45,5;902,3125;1369,625;390;1;1;0;0;0;0;4;269;294;268;307;608;336;369;372;407;409;5;1139;1416;8,6875;4,6875;0;0;0;6;-0,125;-1;136,25;-0,125;20,75;392;3;1;100;-45;7
4489;0;0;0;0;13;2;13;0;0;0;0;0;0;0;0;0;0;0;5;0;0;0;2;0;30,4375;224;5,625;0;4,125;0;0;3;21,1875;0;0;-45,8125;904,5;1365,1875;390;1;1;0;0;0;0;4;267;292;266;305;609;337;369;372;407;408;5;1129;1416;8,6875;4,6875;0;0;0;6;-0,75;-0,25;139,625;-0,125;21,5;392;-24;1;100;-46;7
4495;0;0;0;0;13;2;18;0;0;0;0;0;0;0;0;0;0;0;5;0;0;0;2;0;30,4375;224;5,625;0;-1,125;0;0;3;21,1875;0;0;-45,5;903,5625;1359,875;391;1;1;0;0;0;0;4;265;289;264;303;609;339;368;371;406;407;5;1118;1416;8,6875;4,6875;0;0;0;6;-0,5;0,625;141,25;0,5;21;392;8;1;100;-45;7
4501;0;0;0;0;13;2;23;0;0;0;0;0;0;0;0;0;0;0;5;0;0;0;2;0;30,4375;224;5,625;0;0,75;0;0;3;21,1875;0;0;-45,5;902,5;1355;391;1;1;0;0;0;0;4;263;287;262;300;610;340;368;371;406;407;5;1107;1416;8,6875;4,6875;0;0;0;6;-0,75;-0,625;139,5;-0,125;21,5;392;-4;1;100;-46;7
4507;0;0;0;0;13;2;28;0;0;0;0;0;0;0;0;0;0;0;5;0;0;0;2;0;30,4375;224;5,625;0;-2,25;0;0;3;21,1875;0;0;-45,5;903,4375;1350,0625;392;1;1;0;0;0;0;4;261;285;260;298;610;341;367;370;405;406;5;1096;1416;8,6875;4,6875;0;0;0;6;-0,25;-0,125;139,75;-0,125;21,25;392;1;1;100;-45;7
4513;0;0;0;0;13;2;33;0;0;0;0;0;0;0;0;0;0;0;5;0;0;0;2;0;30,4375;224;5,625;0;-2,1875;0;0;3;21,1875;0;0;-45,5;902,5625;1345,25;392;1;1;0;0;0;0;4;259;283;259;296;610;343;367;370;404;405;5;1086;1416;8,6875;4,6875;0;0;0;6;-0,25;-0,25;139,75;-0,125;20,75;392;25;1;100;-46;7
4520;0;0;0;0;13;2;34;0;0;0;0;0;0;0;0;0;0;0;5;0;0;0;2;0;30,4375;224;5,625;0;-3,25;0;0;3;21,1875;0;0;-45,5625;903,9375;1344,0625;393;1;1;0;0;0;0;4;259;283;258;296;610;343;367;370;404;405;5;1083;1416;8,6875;4,6875;0;0;0;6;-0,375;-0,25;139,75;-0,125;21;392;-3;1;100;-46;7
4526;0;0;0;0;13;2;39;0;0;0;0;0;0;0;0;0;0;0;5;0;0;0;2;0;30,4375;223;5,625;0;-3,3125;0;0;3;21,1875;0;0;-45,8125;904,5;1339,5;393;1;1;0;0;0;0;4;256;280;257;294;610;344;366;369;404;405;5;1072;1416;8,6875;4,6875;0;0;0;6;-0,5;-0,125;139,875;-0,125;21;392;-9;1;100;-46;7
4532;0;0;0;0;13;2;44;0;0;0;0;0;0;0;0;0;0;0;5;0;0;0;2;0;30,4375;223;5,625;0;-6,8125;0;0;3;21,1875;0;0;-45,5625;902,75;1334,3125;394;1;1;0;0;0;0;4;254;278;255;292;610;346;365;368;403;404;5;1061;1416;8,6875;4,6875;0;0;0;6;-0,5;0;139,75;-0,125;21,25;392;0;1;100;-46;7
4539;0;0;0;0;13;2;46;0;0;0;0;0;0;0;0;0;0;0;5;0;0;0;2;0;30,4375;223;5,625;0;-2,375;0;0;3;21,1875;0;0;-45,5;903,4375;1331,75;394;1;1;0;0;0;0;4;254;278;254;291;610;346;365;368;403;404;5;1056;1416;8,6875;4,6875;0;0;0;6;-0,5;0;139,625;-0,25;20,5;392;12;1;100;-45;7
4545;0;0;0;0;13;2;51;0;0;0;0;0;0;0;0;0;0;0;5;0;0;0;2;0;30,4375;223;5,625;0;1,0625;0;0;3;21,1875;0;0;-45,4375;903,1875;1326,75;395;1;1;0;0;0;0;4;252;275;253;289;610;347;365;368;402;403;5;1045;1416;8,6875;4,6875;0;0;0;6;-0,5;0;139,625;-0,25;20,75;392;6;1;100;-45;7
4551;0;0;0;0;13;2;56;0;0;0;0;0;0;0;0;0;0;0;5;0;0;0;2;0;30,4375;223;5,625;0;4,4375;0;0;3;21,1875;0;0;-45,375;903,875;1323,3125;395;1;1;0;0;0;0;4;250;273;251;287;610;349;364;367;402;402;5;1034;1416;8,6875;4,6875;0;0;0;6;-0,875;0;139,75;-0,125;21;392;-5;1;100;-45;7
4557;0;0;0;0;13;3;1;0;0;0;0;0;0;0;0;0;0;0;5;0;0;0;2;0;30,4375;223;5,625;0;3,875;0;0;3;21,1875;0;0;-45,5;904,5625;1318,4375;395;1;1;0;0;0;0;4;248;271;250;285;610;350;364;367;401;402;5;1022;1416;8,6875;4,6875;0;0;0;6;-0,625;0,25;139,875;-0,125;20,5;392;-5;1;100;-46;7
4563;0;0;0;0;13;3;6;0;0;0;0;0;0;0;0;0;0;0;5;0;0;0;2;0;30,4375;223;5,625;0;0,0625;0;0;3;21,1875;0;0;-45,4375;903,125;1313,3125;396;1;1;0;0;0;0;4;247;269;248;283;610;351;363;366;400;401;5;1011;1416;8,6875;4,6875;0;0;0;6;-0,875;0,125;139,75;-0,125;21;392;-22;1;100;-45;7
4570;0;0;0;0;13;3;7;0;0;0;0;0;0;0;0;0;0;0;5;0;0;0;2;0;30,4375;223;5,625;0;-3,8125;0;0;3;21,1875;0;0;-45,5625;903,625;1313,625;396;1;1;0;0;0;0;4;246;269;248;283;610;351;363;366;400;401;5;1009;1416;8,6875;4,6875;0;0;0;6;-0,75;0;139,75;-0,125;20,5;392;-4;1;100;-46;7
4577;0;0;0;0;13;3;12;0;0;0;0;0;0;0;0;0;0;0;5;0;0;0;2;0;30,4375;223;5,625;0;-1,5625;0;0;3;21,1875;0;0;-45,625;904,625;1307,8125;397;1;1;0;0;0;0;4;245;267;247;281;610;352;363;366;400;400;5;998;1416;8,6875;4,6875;0;0;0;6;-0,625;0,125;139,875;-0,125;20,5;392;8;1;100;-46;7
4584;0;0;0;0;13;3;13;0;0;0;0;0;0;0;0;0;0;0;5;0;0;0;2;0;30,4375;223;5,625;0;-4,0625;0;0;3;21,1875;0;0;-45,5;903,5;1308,5625;397;1;1;0;0;0;0;4;244;267;246;281;610;352;363;365;399;400;5;995;1416;8,6875;4,6875;0;0;0;6;-0,5;0;139,75;-0,125;20,25;392;17;1;100;-45;7
4590;0;0;0;0;13;3;18;0;0;0;0;0;0;0;0;0;0;0;5;0;0;0;2;0;30,4375;223;5,625;0;-3,125;0;0;3;21,1875;0;0;-45,5;902,4375;1303,6875;397;1;1;0;0;0;0;4;243;265;245;279;609;353;362;365;399;399;5;984;1416;8,6875;4,6875;0;0;0;6;-0,625;0;139,75;-0,125;20,75;392;-22;1;100;-45;7
4597;0;0;0;0;13;3;23;0;0;0;0;0;0;0;0;0;0;0;5;0;0;0;2;0;30,4375;223;5,625;0;0,4375;0;0;3;21,1875;0;0;-45,4375;903,125;1298,6875;398;1;1;0;0;0;0;4;241;263;243;277;608;354;361;364;398;399;5;973;1416;8,6875;4,6875;0;0;0;6;-0,25;0;139,75;-0,125;20,25;392;2;1;100;-45;7
4603;0;0;0;0;13;3;28;0;0;0;0;0;0;0;0;0;0;0;5;0;0;0;2;0;30,4375;222;5,625;0;-0,1875;0;0;3;21,1875;0;0;-45,375;901,5625;1294,9375;398;1;1;0;0;0;0;4;239;261;242;275;607;355;361;364;397;398;5;962;1416;8,6875;4,6875;0;0;0;6;-0,5;-0,125;139,75;-0,125;20,5;392;8;1;100;-45;7
4609;0;0;0;0;13;3;33;0;0;0;0;0;0;0;0;0;0;0;5;0;0;0;2;0;30,4375;222;5,625;0;-1,125;0;0;3;21,1875;0;0;-45,5;902,1875;1290,1875;399;1;1;0;0;0;0;4;238;260;241;273;606;356;361;363;397;397;5;951;1416;8,6875;4,6875;0;0;0;6;-0,5;-0,125;139,875;-0,125;20,25;392;-11;1;100;-45;7
4616;0;0;0;0;13;3;38;0;0;0;0;0;0;0;0;0;0;0;5;0;0;0;2;0;30,4375;222;5,625;0;-1,5625;0;0;3;21,1875;0;0;-45,6875;904,8125;1285,8125;399;1;1;0;0;0;0;4;236;258;240;272;604;357;360;363;396;397;5;940;1416;8,6875;4,6875;0;0;0;6;-0,5;-0,125;139,875;-0,125;19,75;392;13;1;100;-46;7
4623;0;0;0;0;13;3;41;0;0;0;0;0;0;0;0;0;0;0;5;0;0;0;2;0;30,4375;222;5,625;0;-3,75;0;0;3;21,1875;0;0;-45,8125;905,6875;1284,5625;399;1;1;0;0;0;0;4;235;257;239;271;603;358;360;363;396;396;5;934;1416;8,6875;4,6875;0;0;0;6;-0,75;-0,125;139,75;-0,125;20,25;392;-4;1;100;-46;7
4630;0;0;0;0;13;3;46;0;0;0;0;0;0;0;0;0;0;0;5;0;0;0;2;0;30,4375;222;5,625;0;0,625;0;0;3;21,1875;0;0;-45,375;902,25;1279,25;400;1;1;0;0;0;0;4;234;255;238;269;602;359;359;362;395;396;5;923;1416;8,6875;4,6875;0;0;0;6;-0,5;-0,125;139,875;0;19,5;392;10;1;100;-45;7
4636;0;0;0;0;13;3;51;0;0;0;0;0;0;0;0;0;0;0;5;0;0;0;2;0;30,4375;222;5,625;0;1,875;0;0;3;21,1875;0;0;-45,3125;902,1875;1275,5625;400;1;1;0;0;0;0;4;233;254;236;268;600;360;359;362;395;395;5;912;1416;8,6875;4,6875;0;0;0;6;-0,625;0;139,75;-0,125;20;392;25;1;100;-45;7
4642;0;0;0;0;13;3;56;0;0;0;0;0;0;0;0;0;0;0;5;0;0;0;2;0;30,4375;222;5,625;0;-1,1875;0;0;3;21,1875;0;0;-45,4375;904;1270,8125;401;1;1;0;0;0;0;4;231;252;235;266;598;360;358;361;394;395;5;901;1416;8,6875;4,6875;0;0;0;6;-0,875;0;139,75;-0,125;20,25;392;-12;1;100;-45;7
4648;0;0;0;0;13;4;1;0;0;0;0;0;0;0;0;0;0;0;5;0;0;0;2;0;30,4375;222;5,625;0;0,6875;0;0;3;21,1875;0;0;-45,5625;903,9375;1267,3125;401;1;1;0;0;0;0;4;230;250;234;264;597;361;358;361;393;394;5;891;1416;8,6875;4,6875;0;0;0;6;-0,5;-0,125;139,75;-0,125;19,75;392;9;1;100;-46;7
4654;0;0;0;0;13;4;6;0;0;0;0;0;0;0;0;0;0;0;5;0;0;0;2;0;30,4375;221;5,625;0;1,9375;0;0;3;21,1875;0;0;-45,3125;903,25;1263,3125;401;1;1;0;0;0;0;4;228;249;233;263;595;362;357;360;393;393;5;880;1416;8,6875;4,6875;0;0;0;6;-0,75;0,125;139,875;-0,125;20,5;392;7;1;100;-45;7
